$GPGGA,103011.0,3114.680723,N,12135.5476165,E,4,36,1.0,1.5125,M,34.9965,M,1.0,0007*7F
$GPGGA,103012.0,3114.6807208,N,12135.5476173,E,4,36,1.0,1.5125,M,34.9955,M,1.0,0007*7F
$GPGGA,103013.0,3114.6807212,N,12135.5476162,E,4,36,1.0,1.5125,M,34.9855,M,1.0,0007*7F
$GPGGA,103014.0,3114.6807218,N,12135.5476175,E,4,36,1.0,1.5125,M,34.9935,M,1.0,0007*7F
$GPGGA,103015.0,3114.6807222,N,12135.5476177,E,4,36,1.0,1.5125,M,34.9975,M,1.0,0007*7F
$GPGGA,103016.0,3114.6807223,N,12135.5476187,E,4,36,1.0,1.5125,M,34.9955,M,1.0,0007*7F
$GPGGA,103017.0,3114.680722,N,12135.5476178,E,4,36,1.0,1.5125,M,34.9925,M,2.0,0007*7F
$GPGGA,103018.0,3114.6807215,N,12135.547617,E,4,36,1.0,1.5125,M,34.9965,M,1.0,0007*7F
$GPGGA,103019.0,3114.6807213,N,12135.547616,E,4,36,1.0,1.5125,M,34.9985,M,1.0,0007*7F
$GPGGA,103020.0,3114.6807225,N,12135.5476182,E,4,36,1.0,1.5125,M,35.0005,M,1.0,0007*7F
$GPGGA,103021.0,3114.680721,N,12135.5476183,E,4,36,1.0,1.5125,M,34.9955,M,1.0,0007*7F
$GPGGA,103022.0,3114.6807227,N,12135.5476172,E,4,36,1.0,1.5125,M,34.9945,M,1.0,0007*7F
$GPGGA,103023.0,3114.680722,N,12135.5476167,E,4,36,1.0,1.5125,M,34.9875,M,1.0,0007*7F
$GPGGA,103024.0,3114.6807208,N,12135.547619,E,4,36,1.0,1.5125,M,34.9975,M,1.0,0007*7F
$GPGGA,103025.0,3114.6807227,N,12135.547618,E,4,36,1.0,1.5125,M,34.9945,M,1.0,0007*7F
$GPGGA,103026.0,3114.6807233,N,12135.5476163,E,4,36,1.0,1.5125,M,34.9935,M,1.0,0007*7F
$GPGGA,103027.0,3114.6807212,N,12135.547616,E,4,36,1.0,1.5125,M,34.9895,M,1.0,0007*7F
$GPGGA,103028.0,3114.6807218,N,12135.5476167,E,4,36,1.0,1.5125,M,34.9905,M,1.0,0007*7F
$GPGGA,103029.0,3114.6807218,N,12135.5476177,E,4,36,1.0,1.5125,M,34.9905,M,1.0,0007*7F
$GPGGA,103030.0,3114.6807232,N,12135.5476168,E,4,36,1.0,1.5125,M,34.9935,M,1.0,0007*7F
$GPGGA,103031.0,3114.6807235,N,12135.5476173,E,4,36,1.0,1.5125,M,34.9845,M,1.0,0007*7F
$GPGGA,103032.0,3114.6807217,N,12135.547616,E,4,36,1.0,1.5125,M,34.9875,M,1.0,0007*7F
$GPGGA,103033.0,3114.680721,N,12135.5476173,E,4,36,1.0,1.5125,M,34.9965,M,1.0,0007*7F
$GPGGA,103034.0,3114.6807207,N,12135.5476175,E,4,36,1.0,1.5125,M,34.9845,M,1.0,0007*7F
$GPGGA,103035.0,3114.6807225,N,12135.547618,E,4,36,1.0,1.5125,M,34.9875,M,1.0,0007*7F
$GPGGA,103036.0,3114.6807207,N,12135.547617,E,4,36,1.0,1.5125,M,34.9945,M,1.0,0007*7F
$GPGGA,103037.0,3114.6807208,N,12135.5476182,E,4,36,1.0,1.5125,M,34.9915,M,1.0,0007*7F
$GPGGA,103038.0,3114.6807212,N,12135.5476168,E,4,36,1.0,1.5125,M,34.9885,M,1.0,0007*7F
$GPGGA,103039.0,3114.6807225,N,12135.5476172,E,4,36,1.0,1.5125,M,34.9835,M,1.0,0007*7F
$GPGGA,103040.0,3114.6807215,N,12135.5476157,E,4,36,1.0,1.5125,M,34.9865,M,1.0,0007*7F
$GPGGA,103041.0,3114.6807232,N,12135.5476175,E,4,36,1.0,1.5125,M,34.9845,M,1.0,0007*7F
$GPGGA,103042.0,3114.6807203,N,12135.5476177,E,4,36,1.0,1.5125,M,34.9975,M,1.0,0007*7F
$GPGGA,103043.0,3114.6807213,N,12135.5476182,E,4,36,1.0,1.5125,M,34.9925,M,2.0,0007*7F
$GPGGA,103044.0,3114.6807228,N,12135.5476168,E,4,36,1.0,1.5125,M,34.9895,M,1.0,0007*7F
$GPGGA,103045.0,3114.6807213,N,12135.547618,E,4,36,1.0,1.5125,M,34.9925,M,1.0,0007*7F
$GPGGA,103046.0,3114.6807228,N,12135.5476178,E,4,36,1.0,1.5125,M,34.9895,M,1.0,0007*7F
$GPGGA,103047.0,3114.6807227,N,12135.5476187,E,4,36,1.0,1.5125,M,34.9895,M,1.0,0007*7F
$GPGGA,103048.0,3114.6807227,N,12135.5476187,E,4,36,1.0,1.5125,M,34.9885,M,1.0,0007*7F
$GPGGA,103049.0,3114.6807218,N,12135.5476167,E,4,36,1.0,1.5125,M,34.9925,M,1.0,0007*7F
$GPGGA,103050.0,3114.6807217,N,12135.54762,E,4,36,1.0,1.5125,M,34.9805,M,1.0,0007*7F
$GPGGA,103051.0,3114.6807215,N,12135.5476183,E,4,36,1.0,1.5125,M,34.9905,M,1.0,0007*7F
$GPGGA,103052.0,3114.680722,N,12135.5476178,E,4,36,1.0,1.5125,M,34.9915,M,1.0,0007*7F
$GPGGA,103053.0,3114.680723,N,12135.5476185,E,4,36,1.0,1.5125,M,34.9905,M,1.0,0007*7F
$GPGGA,103054.0,3114.6807228,N,12135.5476192,E,4,36,1.0,1.5125,M,34.9915,M,1.0,0007*7F
$GPGGA,103055.0,3114.6807212,N,12135.5476188,E,4,36,1.0,1.5125,M,34.9965,M,1.0,0007*7F
$GPGGA,103056.0,3114.6807213,N,12135.5476178,E,4,36,1.0,1.5125,M,34.9945,M,1.0,0007*7F
$GPGGA,103057.0,3114.6807213,N,12135.5476185,E,4,36,1.0,1.5125,M,34.9915,M,1.0,0007*7F
$GPGGA,103058.0,3114.6807222,N,12135.5476178,E,4,36,1.0,1.5125,M,35.0025,M,1.0,0007*7F
$GPGGA,103059.0,3114.6807215,N,12135.547617,E,4,36,1.0,1.5125,M,34.9975,M,1.0,0007*7F
$GPGGA,103100.0,3114.6807208,N,12135.5476188,E,4,36,1.0,1.5125,M,34.9945,M,1.0,0007*7F
$GPGGA,103101.0,3114.6807212,N,12135.5476185,E,4,36,1.0,1.5125,M,34.9865,M,1.0,0007*7F
$GPGGA,103102.0,3114.6807212,N,12135.5476188,E,4,36,1.0,1.5125,M,34.9895,M,1.0,0007*7F
$GPGGA,103103.0,3114.680722,N,12135.5476188,E,4,36,1.0,1.5125,M,34.9975,M,1.0,0007*7F
$GPGGA,103104.0,3114.6807227,N,12135.5476178,E,4,36,1.0,1.5125,M,34.9945,M,1.0,0007*7F
$GPGGA,103105.0,3114.6807212,N,12135.5476192,E,4,36,1.0,1.5125,M,34.9995,M,1.0,0007*7F
$GPGGA,103106.0,3114.680722,N,12135.5476177,E,4,36,1.0,1.5125,M,35.0045,M,1.0,0007*7F
$GPGGA,103107.0,3114.680721,N,12135.5476168,E,4,36,1.0,1.5125,M,35.0035,M,1.0,0007*7F
$GPGGA,103108.0,3114.680722,N,12135.5476165,E,4,36,1.0,1.5125,M,34.9925,M,1.0,0007*7F
$GPGGA,103109.0,3114.6807213,N,12135.5476197,E,4,36,1.0,1.5125,M,34.9965,M,1.0,0007*7F
$GPGGA,103110.0,3114.6807213,N,12135.547619,E,4,36,1.0,1.5125,M,34.9975,M,1.0,0007*7F
$GPGGA,103111.0,3114.6807222,N,12135.5476188,E,4,36,1.0,1.5125,M,35.0025,M,1.0,0007*7F
$GPGGA,103112.0,3114.6807225,N,12135.5476187,E,4,36,1.0,1.5125,M,34.9925,M,1.0,0007*7F
$GPGGA,103113.0,3114.680722,N,12135.5476183,E,4,36,1.0,1.5125,M,34.9875,M,1.0,0007*7F
$GPGGA,103114.0,3114.6807225,N,12135.5476198,E,4,36,1.0,1.5125,M,35.0015,M,1.0,0007*7F
$GPGGA,103115.0,3114.6807218,N,12135.5476195,E,4,36,1.0,1.5125,M,35.0055,M,1.0,0007*7F
$GPGGA,103116.0,3114.680722,N,12135.5476193,E,4,36,1.0,1.5125,M,35.0035,M,1.0,0007*7F
$GPGGA,103117.0,3114.6807218,N,12135.547618,E,4,36,1.0,1.5125,M,34.9895,M,1.0,0007*7F
$GPGGA,103118.0,3114.6807223,N,12135.5476195,E,4,36,1.0,1.5125,M,35.0005,M,1.0,0007*7F
$GPGGA,103119.0,3114.6807212,N,12135.5476192,E,4,36,1.0,1.5125,M,34.9955,M,1.0,0007*7F
$GPGGA,103120.0,3114.6807233,N,12135.5476175,E,4,36,1.0,1.5125,M,35.0015,M,1.0,0007*7F
$GPGGA,103121.0,3114.680722,N,12135.547619,E,4,36,1.0,1.5125,M,34.9915,M,1.0,0007*7F
$GPGGA,103122.0,3114.680722,N,12135.5476193,E,4,36,1.0,1.5125,M,34.9965,M,1.0,0007*7F
$GPGGA,103123.0,3114.6807223,N,12135.5476187,E,4,36,1.0,1.5125,M,34.9965,M,1.0,0007*7F
$GPGGA,103124.0,3114.680723,N,12135.5476173,E,4,36,1.0,1.5125,M,34.9885,M,1.0,0007*7F
$GPGGA,103125.0,3114.6807222,N,12135.5476188,E,4,36,1.0,1.5125,M,35.0025,M,1.0,0007*7F
$GPGGA,103126.0,3114.680721,N,12135.5476173,E,4,36,1.0,1.5125,M,34.9975,M,1.0,0007*7F
$GPGGA,103127.0,3114.6807223,N,12135.5476175,E,4,36,1.0,1.5125,M,35.0025,M,1.0,0007*7F
$GPGGA,103128.0,3114.6807232,N,12135.5476183,E,4,36,1.0,1.5125,M,35.0115,M,1.0,0007*7F
$GPGGA,103129.0,3114.680723,N,12135.5476188,E,4,36,1.0,1.5125,M,34.9925,M,1.0,0007*7F
$GPGGA,103130.0,3114.6807225,N,12135.5476175,E,4,36,1.0,1.5125,M,34.9975,M,1.0,0007*7F
$GPGGA,103131.0,3114.6807233,N,12135.5476193,E,4,36,1.0,1.5125,M,34.9955,M,1.0,0007*7F
$GPGGA,103132.0,3114.6807223,N,12135.5476183,E,4,36,1.0,1.5125,M,34.9905,M,1.0,0007*7F
$GPGGA,103133.0,3114.6807222,N,12135.5476205,E,4,36,1.0,1.5125,M,34.9955,M,1.0,0007*7F
$GPGGA,103134.0,3114.6807227,N,12135.547619,E,4,36,1.0,1.5125,M,34.9965,M,1.0,0007*7F
$GPGGA,103135.0,3114.6807222,N,12135.5476203,E,4,36,1.0,1.5125,M,34.9995,M,1.0,0007*7F
$GPGGA,103136.0,3114.6807227,N,12135.5476183,E,4,36,1.0,1.5125,M,35.0005,M,1.0,0007*7F
$GPGGA,103137.0,3114.6807235,N,12135.5476197,E,4,36,1.0,1.5125,M,34.9965,M,1.0,0007*7F
$GPGGA,103138.0,3114.6807212,N,12135.547618,E,4,36,1.0,1.5125,M,35.0035,M,1.0,0007*7F
$GPGGA,103139.0,3114.6807222,N,12135.5476187,E,4,36,1.0,1.5125,M,35.0015,M,1.0,0007*7F
$GPGGA,103140.0,3114.6807227,N,12135.5476172,E,4,36,1.0,1.5125,M,35.0035,M,1.0,0007*7F
$GPGGA,103141.0,3114.6807227,N,12135.5476185,E,4,36,1.0,1.5125,M,34.9945,M,1.0,0007*7F
$GPGGA,103142.0,3114.680722,N,12135.5476178,E,4,36,1.0,1.5125,M,34.9935,M,1.0,0007*7F
$GPGGA,103143.0,3114.680722,N,12135.5476183,E,4,36,1.0,1.5125,M,34.9955,M,2.0,0007*7F
$GPGGA,103144.0,3114.6807235,N,12135.5476175,E,4,36,1.0,1.5125,M,35.0015,M,1.0,0007*7F
$GPGGA,103145.0,3114.6807228,N,12135.5476185,E,4,36,1.0,1.5125,M,34.9935,M,1.0,0007*7F
$GPGGA,103146.0,3114.6807222,N,12135.5476167,E,4,36,1.0,1.5125,M,34.9995,M,1.0,0007*7F
$GPGGA,103147.0,3114.6807228,N,12135.5476172,E,4,36,1.0,1.5125,M,35.0015,M,1.0,0007*7F
$GPGGA,103148.0,3114.6807222,N,12135.5476173,E,4,36,1.0,1.5125,M,35.0115,M,1.0,0007*7F
$GPGGA,103149.0,3114.6807227,N,12135.5476177,E,4,36,1.0,1.5125,M,35.0025,M,1.0,0007*7F
$GPGGA,103150.0,3114.6807212,N,12135.5476188,E,4,36,1.0,1.5125,M,35.0015,M,1.0,0007*7F
$GPGGA,103151.0,3114.6807208,N,12135.5476168,E,4,36,1.0,1.5125,M,35.0015,M,1.0,0007*7F
$GPGGA,103152.0,3114.6807203,N,12135.5476182,E,4,36,1.0,1.5125,M,35.0075,M,1.0,0007*7F
$GPGGA,103153.0,3114.6807218,N,12135.5476183,E,4,36,1.0,1.5125,M,34.9965,M,1.0,0007*7F
$GPGGA,103154.0,3114.6807228,N,12135.5476185,E,4,36,1.0,1.5125,M,35.0035,M,1.0,0007*7F
$GPGGA,103155.0,3114.6807232,N,12135.5476172,E,4,36,1.0,1.5125,M,34.9905,M,1.0,0007*7F
$GPGGA,103156.0,3114.6807225,N,12135.5476193,E,4,36,1.0,1.5125,M,34.9965,M,1.0,0007*7F
$GPGGA,103157.0,3114.680722,N,12135.5476177,E,4,36,1.0,1.5125,M,34.9955,M,1.0,0007*7F
$GPGGA,103158.0,3114.6807222,N,12135.5476177,E,4,36,1.0,1.5125,M,35.0015,M,1.0,0007*7F
$GPGGA,103159.0,3114.6807233,N,12135.5476178,E,4,36,1.0,1.5125,M,34.9945,M,1.0,0007*7F
$GPGGA,103200.0,3114.680723,N,12135.5476178,E,4,36,1.0,1.5125,M,35.0045,M,1.0,0007*7F
$GPGGA,103201.0,3114.6807232,N,12135.5476188,E,4,36,1.0,1.5125,M,35.0015,M,1.0,0007*7F
$GPGGA,103202.0,3114.6807212,N,12135.547618,E,4,36,1.0,1.5125,M,35.0015,M,1.0,0007*7F
$GPGGA,103203.0,3114.6807243,N,12135.5476188,E,4,36,1.0,1.5125,M,34.9875,M,1.0,0007*7F
$GPGGA,103204.0,3114.6807227,N,12135.5476178,E,4,36,1.0,1.5125,M,35.0005,M,1.0,0007*7F
$GPGGA,103205.0,3114.6807228,N,12135.5476187,E,4,36,1.0,1.5125,M,34.9975,M,1.0,0007*7F
$GPGGA,103206.0,3114.6807227,N,12135.547617,E,4,36,1.0,1.5125,M,34.9995,M,1.0,0007*7F
$GPGGA,103207.0,3114.680723,N,12135.5476183,E,4,36,1.0,1.5125,M,34.9945,M,1.0,0007*7F
$GPGGA,103208.0,3114.6807212,N,12135.5476175,E,4,36,1.0,1.5125,M,35.0015,M,1.0,0007*7F
$GPGGA,103209.0,3114.6807237,N,12135.547618,E,4,36,1.0,1.5125,M,34.9995,M,1.0,0007*7F
$GPGGA,103210.0,3114.6807212,N,12135.5476193,E,4,36,1.0,1.5125,M,34.9985,M,1.0,0007*7F
$GPGGA,103211.0,3114.6807222,N,12135.5476173,E,4,36,1.0,1.5125,M,35.0045,M,1.0,0007*7F
$GPGGA,103212.0,3114.6807232,N,12135.547619,E,4,36,1.0,1.5125,M,35.0015,M,1.0,0007*7F
$GPGGA,103213.0,3114.6807238,N,12135.5476172,E,4,36,1.0,1.5125,M,35.0015,M,1.0,0007*7F
$GPGGA,103214.0,3114.680721,N,12135.547618,E,4,36,1.0,1.5125,M,35.0015,M,1.0,0007*7F
$GPGGA,103215.0,3114.6807227,N,12135.5476182,E,4,36,1.0,1.5125,M,35.0035,M,1.0,0007*7F
$GPGGA,103216.0,3114.6807228,N,12135.5476188,E,4,36,1.0,1.5125,M,35.0015,M,1.0,0007*7F
$GPGGA,103217.0,3114.6807225,N,12135.5476183,E,4,36,1.0,1.5125,M,35.0085,M,1.0,0007*7F
$GPGGA,103218.0,3114.6807228,N,12135.5476183,E,4,36,1.0,1.5125,M,34.9985,M,1.0,0007*7F
$GPGGA,103219.0,3114.6807223,N,12135.547617,E,4,36,1.0,1.5125,M,35.0055,M,1.0,0007*7F
$GPGGA,103220.0,3114.6807215,N,12135.5476182,E,4,36,1.0,1.5125,M,35.0065,M,1.0,0007*7F
$GPGGA,103221.0,3114.6807235,N,12135.5476182,E,4,36,1.0,1.5125,M,35.0025,M,1.0,0007*7F
$GPGGA,103222.0,3114.6807222,N,12135.547619,E,4,36,1.0,1.5125,M,35.0045,M,1.0,0007*7F
$GPGGA,103223.0,3114.6807217,N,12135.547619,E,4,36,1.0,1.5125,M,35.0005,M,1.0,0007*7F
$GPGGA,103224.0,3114.6807228,N,12135.54762,E,4,36,1.0,1.5125,M,34.9995,M,1.0,0007*7F
$GPGGA,103225.0,3114.680722,N,12135.5476178,E,4,36,1.0,1.5125,M,35.0025,M,1.0,0007*7F
$GPGGA,103226.0,3114.6807238,N,12135.5476187,E,4,36,1.0,1.5125,M,34.9975,M,1.0,0007*7F
$GPGGA,103227.0,3114.680723,N,12135.5476177,E,4,36,1.0,1.5125,M,35.0055,M,1.0,0007*7F
$GPGGA,103228.0,3114.680723,N,12135.5476192,E,4,36,1.0,1.5125,M,34.9975,M,1.0,0007*7F
$GPGGA,103229.0,3114.6807225,N,12135.5476173,E,4,36,1.0,1.5125,M,35.0055,M,1.0,0007*7F
$GPGGA,103230.0,3114.6807225,N,12135.5476173,E,4,36,1.0,1.5125,M,35.0045,M,1.0,0007*7F
$GPGGA,103231.0,3114.6807212,N,12135.5476178,E,4,36,1.0,1.5125,M,35.0075,M,1.0,0007*7F
$GPGGA,103232.0,3114.6807222,N,12135.547618,E,4,36,1.0,1.5125,M,34.9955,M,1.0,0007*7F
$GPGGA,103233.0,3114.6807222,N,12135.5476168,E,4,36,1.0,1.5125,M,35.0015,M,1.0,0007*7F
$GPGGA,103234.0,3114.6807208,N,12135.547618,E,4,36,1.0,1.5125,M,35.0025,M,1.0,0007*7F
$GPGGA,103235.0,3114.6807225,N,12135.547618,E,4,36,1.0,1.5125,M,35.0005,M,1.0,0007*7F
$GPGGA,103236.0,3114.680723,N,12135.5476187,E,4,36,1.0,1.5125,M,35.0015,M,1.0,0007*7F
$GPGGA,103237.0,3114.6807223,N,12135.547619,E,4,36,1.0,1.5125,M,35.0075,M,1.0,0007*7F
$GPGGA,103238.0,3114.6807222,N,12135.547617,E,4,36,1.0,1.5125,M,35.0025,M,1.0,0007*7F
$GPGGA,103239.0,3114.6807222,N,12135.547619,E,4,36,1.0,1.5125,M,35.0035,M,1.0,0007*7F
$GPGGA,103240.0,3114.680723,N,12135.547619,E,4,36,1.0,1.5125,M,34.9975,M,1.0,0007*7F
$GPGGA,103241.0,3114.6807228,N,12135.5476195,E,4,36,1.0,1.5125,M,34.9995,M,1.0,0007*7F
$GPGGA,103242.0,3114.6807222,N,12135.547618,E,4,36,1.0,1.5125,M,35.0055,M,1.0,0007*7F
$GPGGA,103243.0,3114.6807215,N,12135.5476163,E,4,36,1.0,1.5125,M,35.0005,M,2.0,0007*7F
$GPGGA,103244.0,3114.6807227,N,12135.5476177,E,4,36,1.0,1.5125,M,34.9905,M,1.0,0007*7F
$GPGGA,103245.0,3114.6807223,N,12135.5476168,E,4,36,1.0,1.5125,M,35.0045,M,1.0,0007*7F
$GPGGA,103246.0,3114.6807227,N,12135.5476185,E,4,36,1.0,1.5125,M,35.0015,M,1.0,0007*7F
$GPGGA,103247.0,3114.6807223,N,12135.5476187,E,4,36,1.0,1.5125,M,34.9985,M,1.0,0007*7F
$GPGGA,103248.0,3114.680722,N,12135.5476188,E,4,36,1.0,1.5125,M,34.9985,M,1.0,0007*7F
$GPGGA,103249.0,3114.6807232,N,12135.547619,E,4,36,1.0,1.5125,M,34.9885,M,1.0,0007*7F
$GPGGA,103250.0,3114.680723,N,12135.5476192,E,4,36,1.0,1.5125,M,35.0025,M,1.0,0007*7F
$GPGGA,103251.0,3114.680723,N,12135.5476172,E,4,36,1.0,1.5125,M,34.9975,M,1.0,0007*7F
$GPGGA,103252.0,3114.6807225,N,12135.5476183,E,4,36,1.0,1.5125,M,34.9995,M,1.0,0007*7F
$GPGGA,103253.0,3114.680723,N,12135.5476195,E,4,36,1.0,1.5125,M,35.0015,M,1.0,0007*7F
$GPGGA,103254.0,3114.6807227,N,12135.5476162,E,4,36,1.0,1.5125,M,34.9975,M,1.0,0007*7F
$GPGGA,103255.0,3114.6807223,N,12135.5476177,E,4,36,1.0,1.5125,M,34.9995,M,1.0,0007*7F
$GPGGA,103256.0,3114.680722,N,12135.5476177,E,4,36,1.0,1.5125,M,35.0055,M,1.0,0007*7F
$GPGGA,103257.0,3114.680723,N,12135.5476183,E,4,36,1.0,1.5125,M,35.0025,M,1.0,0007*7F
$GPGGA,103258.0,3114.6807215,N,12135.5476178,E,4,36,1.0,1.5125,M,35.0015,M,1.0,0007*7F
$GPGGA,103259.0,3114.6807227,N,12135.5476182,E,4,36,1.0,1.5125,M,34.9985,M,1.0,0007*7F
$GPGGA,103300.0,3114.6807227,N,12135.5476178,E,4,36,1.0,1.5125,M,35.0065,M,1.0,0007*7F
$GPGGA,103301.0,3114.6807228,N,12135.5476188,E,4,36,1.0,1.5125,M,34.9985,M,1.0,0007*7F
$GPGGA,103302.0,3114.6807235,N,12135.547618,E,4,37,1.0,1.5125,M,34.9945,M,1.0,0007*7F
$GPGGA,103303.0,3114.6807228,N,12135.5476182,E,4,37,1.0,1.5125,M,34.9995,M,1.0,0007*7F
$GPGGA,103304.0,3114.6807217,N,12135.5476173,E,4,37,1.0,1.5125,M,35.0075,M,1.0,0007*7F
$GPGGA,103305.0,3114.6807228,N,12135.547617,E,4,37,1.0,1.5125,M,35.0025,M,1.0,0007*7F
$GPGGA,103306.0,3114.6807218,N,12135.5476182,E,4,37,1.0,1.5125,M,35.0005,M,1.0,0007*7F
$GPGGA,103307.0,3114.680723,N,12135.5476183,E,4,37,1.0,1.5125,M,35.0065,M,1.0,0007*7F
$GPGGA,103308.0,3114.6807218,N,12135.5476175,E,4,37,1.0,1.5125,M,35.0085,M,1.0,0007*7F
$GPGGA,103309.0,3114.6807225,N,12135.5476187,E,4,37,1.0,1.5125,M,34.9965,M,1.0,0007*7F
$GPGGA,103310.0,3114.6807227,N,12135.5476183,E,4,37,1.0,1.5125,M,35.0045,M,1.0,0007*7F
$GPGGA,103311.0,3114.680723,N,12135.5476163,E,4,37,1.0,1.5125,M,34.9885,M,1.0,0007*7F
$GPGGA,103312.0,3114.6807235,N,12135.5476177,E,4,37,1.0,1.5125,M,34.9935,M,1.0,0007*7F
$GPGGA,103313.0,3114.6807233,N,12135.547618,E,4,37,1.0,1.5125,M,35.0025,M,1.0,0007*7F
$GPGGA,103314.0,3114.6807243,N,12135.547618,E,4,37,1.0,1.5125,M,35.0005,M,1.0,0007*7F
$GPGGA,103315.0,3114.680723,N,12135.5476183,E,4,37,1.0,1.5125,M,34.9985,M,1.0,0007*7F
$GPGGA,103316.0,3114.680723,N,12135.547617,E,4,37,1.0,1.5125,M,35.0085,M,1.0,0007*7F
$GPGGA,103317.0,3114.680722,N,12135.5476173,E,4,37,1.0,1.5125,M,34.9935,M,1.0,0007*7F
$GPGGA,103318.0,3114.6807218,N,12135.5476168,E,4,37,1.0,1.5125,M,35.0015,M,1.0,0007*7F
$GPGGA,103319.0,3114.6807223,N,12135.5476173,E,4,37,1.0,1.5125,M,34.9915,M,1.0,0007*7F
$GPGGA,103320.0,3114.6807222,N,12135.5476163,E,4,37,1.0,1.5125,M,35.0015,M,1.0,0007*7F
$GPGGA,103321.0,3114.6807237,N,12135.5476168,E,4,37,1.0,1.5125,M,34.9965,M,1.0,0007*7F
$GPGGA,103322.0,3114.680722,N,12135.547617,E,4,37,1.0,1.5125,M,34.9995,M,1.0,0007*7F
$GPGGA,103323.0,3114.6807235,N,12135.547617,E,4,37,1.0,1.5125,M,35.0005,M,1.0,0007*7F
$GPGGA,103324.0,3114.6807242,N,12135.5476165,E,4,37,1.0,1.5125,M,34.9915,M,1.0,0007*7F
$GPGGA,103325.0,3114.6807232,N,12135.5476173,E,4,37,1.0,1.5125,M,34.9955,M,1.0,0007*7F
$GPGGA,103326.0,3114.6807228,N,12135.547617,E,4,37,1.0,1.5125,M,35.0015,M,1.0,0007*7F
$GPGGA,103327.0,3114.680723,N,12135.5476178,E,4,37,1.0,1.5125,M,34.9985,M,1.0,0007*7F
$GPGGA,103328.0,3114.6807233,N,12135.5476173,E,4,37,1.0,1.5125,M,35.0045,M,1.0,0007*7F
$GPGGA,103329.0,3114.6807228,N,12135.547617,E,4,37,1.0,1.5125,M,35.0005,M,1.0,0007*7F
$GPGGA,103330.0,3114.6807235,N,12135.5476173,E,4,37,1.0,1.5125,M,34.9965,M,1.0,0007*7F
$GPGGA,103331.0,3114.680723,N,12135.5476178,E,4,37,1.0,1.5125,M,34.9965,M,1.0,0007*7F
$GPGGA,103332.0,3114.6807223,N,12135.5476172,E,4,37,1.0,1.5125,M,35.0025,M,1.0,0007*7F
$GPGGA,103333.0,3114.6807222,N,12135.5476167,E,4,37,1.0,1.5125,M,34.9995,M,1.0,0007*7F
$GPGGA,103334.0,3114.6807233,N,12135.5476163,E,4,37,1.0,1.5125,M,34.9945,M,1.0,0007*7F
$GPGGA,103335.0,3114.6807233,N,12135.5476155,E,4,37,1.0,1.5125,M,34.9975,M,1.0,0007*7F
$GPGGA,103336.0,3114.6807233,N,12135.5476158,E,4,37,1.0,1.5125,M,34.9985,M,1.0,0007*7F
$GPGGA,103337.0,3114.6807227,N,12135.5476172,E,4,37,1.0,1.5125,M,34.9985,M,1.0,0007*7F
$GPGGA,103338.0,3114.6807225,N,12135.5476167,E,4,37,1.0,1.5125,M,34.9925,M,1.0,0007*7F
$GPGGA,103339.0,3114.6807223,N,12135.5476173,E,4,37,1.0,1.5125,M,34.9975,M,1.0,0007*7F
$GPGGA,103340.0,3114.6807233,N,12135.5476163,E,4,37,1.0,1.5125,M,34.9955,M,1.0,0007*7F
$GPGGA,103341.0,3114.680723,N,12135.5476165,E,4,37,1.0,1.5125,M,34.9985,M,1.0,0007*7F
$GPGGA,103342.0,3114.6807233,N,12135.5476163,E,4,37,1.0,1.5125,M,34.9995,M,1.0,0007*7F
$GPGGA,103343.0,3114.6807232,N,12135.547616,E,4,37,1.0,1.5125,M,34.9975,M,2.0,0007*7F
$GPGGA,103344.0,3114.6807227,N,12135.5476153,E,4,37,1.0,1.5125,M,35.0015,M,1.0,0007*7F
$GPGGA,103345.0,3114.6807228,N,12135.5476168,E,4,37,1.0,1.5125,M,34.9925,M,1.0,0007*7F
$GPGGA,103346.0,3114.6807222,N,12135.5476158,E,4,37,1.0,1.5125,M,34.9975,M,1.0,0007*7F
$GPGGA,103347.0,3114.6807233,N,12135.5476167,E,4,37,1.0,1.5125,M,34.9875,M,1.0,0007*7F
$GPGGA,103348.0,3114.6807222,N,12135.5476167,E,4,37,1.0,1.5125,M,34.9975,M,1.0,0007*7F
$GPGGA,103349.0,3114.6807215,N,12135.5476173,E,4,37,1.0,1.5125,M,34.9995,M,1.0,0007*7F
$GPGGA,103350.0,3114.6807218,N,12135.547616,E,4,37,1.0,1.5125,M,35.0035,M,1.0,0007*7F
$GPGGA,103351.0,3114.6807232,N,12135.5476168,E,4,37,1.0,1.5125,M,34.9975,M,1.0,0007*7F
$GPGGA,103352.0,3114.6807222,N,12135.5476168,E,4,37,1.0,1.5125,M,34.9985,M,1.0,0007*7F
$GPGGA,103353.0,3114.6807233,N,12135.5476167,E,4,37,1.0,1.5125,M,34.9975,M,1.0,0007*7F
$GPGGA,103354.0,3114.6807235,N,12135.5476178,E,4,37,1.0,1.5125,M,34.9985,M,1.0,0007*7F
$GPGGA,103355.0,3114.6807212,N,12135.5476157,E,4,37,1.0,1.5125,M,34.9935,M,1.0,0007*7F
$GPGGA,103356.0,3114.6807237,N,12135.5476165,E,4,37,1.0,1.5125,M,34.9955,M,1.0,0007*7F
$GPGGA,103357.0,3114.6807233,N,12135.5476163,E,4,37,1.0,1.5125,M,34.9885,M,1.0,0007*7F
$GPGGA,103358.0,3114.6807235,N,12135.5476162,E,4,37,1.0,1.5125,M,34.9955,M,1.0,0007*7F
$GPGGA,103359.0,3114.6807223,N,12135.5476147,E,4,37,1.0,1.5125,M,34.9995,M,1.0,0007*7F
$GPGGA,103400.0,3114.6807232,N,12135.5476158,E,4,37,1.0,1.5125,M,34.9945,M,1.0,0007*7F
$GPGGA,103401.0,3114.6807237,N,12135.5476162,E,4,37,1.0,1.5125,M,34.9935,M,1.0,0007*7F
$GPGGA,103402.0,3114.6807228,N,12135.5476153,E,4,37,1.0,1.5125,M,34.9945,M,1.0,0007*7F
$GPGGA,103403.0,3114.6807227,N,12135.5476148,E,4,37,1.0,1.5125,M,34.9925,M,1.0,0007*7F
$GPGGA,103404.0,3114.6807235,N,12135.5476163,E,4,37,1.0,1.5125,M,34.9995,M,1.0,0007*7F
$GPGGA,103405.0,3114.680723,N,12135.5476165,E,4,37,1.0,1.5125,M,34.9955,M,1.0,0007*7F
$GPGGA,103406.0,3114.6807232,N,12135.5476158,E,4,37,1.0,1.5125,M,34.9965,M,1.0,0007*7F
$GPGGA,103407.0,3114.6807238,N,12135.5476163,E,4,37,1.0,1.5125,M,34.9975,M,1.0,0007*7F
$GPGGA,103408.0,3114.6807232,N,12135.5476172,E,4,37,1.0,1.5125,M,34.9955,M,1.0,0007*7F
$GPGGA,103409.0,3114.6807228,N,12135.5476165,E,4,37,1.0,1.5125,M,34.9965,M,1.0,0007*7F
$GPGGA,103410.0,3114.680723,N,12135.5476175,E,4,37,1.0,1.5125,M,34.9905,M,1.0,0007*7F
$GPGGA,103411.0,3114.6807228,N,12135.5476178,E,4,37,1.0,1.5125,M,34.9845,M,1.0,0007*7F
$GPGGA,103412.0,3114.6807238,N,12135.5476172,E,4,37,1.0,1.5125,M,34.9925,M,1.0,0007*7F
$GPGGA,103413.0,3114.6807232,N,12135.5476153,E,4,37,1.0,1.5125,M,34.9905,M,1.0,0007*7F
$GPGGA,103414.0,3114.6807238,N,12135.5476165,E,4,37,1.0,1.5125,M,34.9925,M,1.0,0007*7F
$GPGGA,103415.0,3114.6807232,N,12135.5476165,E,4,37,1.0,1.5125,M,34.9945,M,1.0,0007*7F
$GPGGA,103416.0,3114.6807232,N,12135.5476167,E,4,37,1.0,1.5125,M,34.9985,M,1.0,0007*7F
$GPGGA,103417.0,3114.6807228,N,12135.5476167,E,4,37,1.0,1.5125,M,34.9865,M,1.0,0007*7F
$GPGGA,103418.0,3114.6807237,N,12135.5476165,E,4,37,1.0,1.5125,M,34.9915,M,1.0,0007*7F
$GPGGA,103419.0,3114.680722,N,12135.547616,E,4,37,1.0,1.5125,M,34.9985,M,1.0,0007*7F
$GPGGA,103420.0,3114.6807232,N,12135.5476177,E,4,37,1.0,1.5125,M,34.9885,M,1.0,0007*7F
$GPGGA,103421.0,3114.6807225,N,12135.5476172,E,4,37,1.0,1.5125,M,34.9925,M,1.0,0007*7F
$GPGGA,103422.0,3114.6807217,N,12135.5476195,E,4,37,1.0,1.5125,M,34.9965,M,1.0,0007*7F
$GPGGA,103423.0,3114.6807227,N,12135.5476187,E,4,37,1.0,1.5125,M,34.9965,M,1.0,0007*7F
$GPGGA,103424.0,3114.6807228,N,12135.5476182,E,4,37,1.0,1.5125,M,35.0015,M,1.0,0007*7F
$GPGGA,103425.0,3114.680722,N,12135.5476177,E,4,37,1.0,1.5125,M,34.9955,M,1.0,0007*7F
$GPGGA,103426.0,3114.6807223,N,12135.547617,E,4,37,1.0,1.5125,M,34.9915,M,1.0,0007*7F
$GPGGA,103427.0,3114.6807223,N,12135.5476165,E,4,37,1.0,1.5125,M,34.9965,M,1.0,0007*7F
$GPGGA,103428.0,3114.6807225,N,12135.5476185,E,4,37,1.0,1.5125,M,34.9975,M,1.0,0007*7F
$GPGGA,103429.0,3114.6807225,N,12135.5476168,E,4,37,1.0,1.5125,M,34.9995,M,1.0,0007*7F
$GPGGA,103430.0,3114.6807212,N,12135.5476177,E,4,37,1.0,1.5125,M,34.9965,M,1.0,0007*7F
$GPGGA,103431.0,3114.6807222,N,12135.5476187,E,4,37,1.0,1.5125,M,34.9985,M,1.0,0007*7F
$GPGGA,103432.0,3114.6807208,N,12135.5476168,E,4,37,1.0,1.5125,M,34.9955,M,1.0,0007*7F
$GPGGA,103433.0,3114.6807213,N,12135.5476168,E,4,37,1.0,1.5125,M,34.9985,M,1.0,0007*7F
$GPGGA,103434.0,3114.680722,N,12135.5476188,E,4,37,1.0,1.5125,M,34.9875,M,1.0,0007*7F
$GPGGA,103435.0,3114.6807223,N,12135.5476183,E,4,37,1.0,1.5125,M,34.9915,M,1.0,0007*7F
$GPGGA,103436.0,3114.6807218,N,12135.5476175,E,4,37,1.0,1.5125,M,35.0025,M,1.0,0007*7F
$GPGGA,103437.0,3114.6807225,N,12135.5476188,E,4,37,1.0,1.5125,M,34.9975,M,1.0,0007*7F
$GPGGA,103438.0,3114.6807217,N,12135.5476173,E,4,37,1.0,1.5125,M,34.9945,M,1.0,0007*7F
$GPGGA,103439.0,3114.6807213,N,12135.547617,E,4,37,1.0,1.5125,M,34.9975,M,1.0,0007*7F
$GPGGA,103440.0,3114.6807227,N,12135.5476163,E,4,37,1.0,1.5125,M,34.9945,M,1.0,0007*7F
$GPGGA,103441.0,3114.6807232,N,12135.5476162,E,4,37,1.0,1.5125,M,34.9985,M,1.0,0007*7F
$GPGGA,103442.0,3114.6807222,N,12135.5476182,E,4,37,1.0,1.5125,M,34.9995,M,1.0,0007*7F
$GPGGA,103443.0,3114.680723,N,12135.5476187,E,4,37,1.0,1.5125,M,34.9945,M,2.0,0007*7F
$GPGGA,103444.0,3114.6807227,N,12135.5476175,E,4,37,1.0,1.5125,M,34.9965,M,1.0,0007*7F
$GPGGA,103445.0,3114.680722,N,12135.547619,E,4,37,1.0,1.5125,M,34.9935,M,1.0,0007*7F
$GPGGA,103446.0,3114.680721,N,12135.5476188,E,4,37,1.0,1.5125,M,35.0065,M,1.0,0007*7F
$GPGGA,103447.0,3114.6807213,N,12135.5476182,E,4,37,1.0,1.5125,M,35.0085,M,2.0,0007*7F
$GPGGA,103448.0,3114.6807218,N,12135.547618,E,4,37,1.0,1.5125,M,35.0065,M,3.0,0007*7F
$GPGGA,103449.0,3114.6807228,N,12135.5476192,E,4,37,1.0,1.5125,M,34.9965,M,1.0,0007*7F
$GPGGA,103450.0,3114.6807215,N,12135.547617,E,4,37,1.0,1.5125,M,34.9955,M,1.0,0007*7F
$GPGGA,103451.0,3114.6807222,N,12135.5476178,E,4,37,1.0,1.5125,M,34.9935,M,1.0,0007*7F
$GPGGA,103452.0,3114.6807228,N,12135.5476172,E,4,37,1.0,1.5125,M,34.9955,M,1.0,0007*7F
$GPGGA,103453.0,3114.6807218,N,12135.5476187,E,4,37,1.0,1.5125,M,35.0005,M,1.0,0007*7F
$GPGGA,103454.0,3114.680722,N,12135.547618,E,4,37,1.0,1.5125,M,35.0005,M,1.0,0007*7F
$GPGGA,103455.0,3114.680722,N,12135.5476185,E,4,37,1.0,1.5125,M,34.9945,M,1.0,0007*7F
$GPGGA,103456.0,3114.6807222,N,12135.5476187,E,4,37,1.0,1.5125,M,34.9865,M,1.0,0007*7F
$GPGGA,103457.0,3114.680722,N,12135.5476188,E,4,37,1.0,1.5125,M,34.9915,M,1.0,0007*7F
$GPGGA,103458.0,3114.6807228,N,12135.5476178,E,4,37,1.0,1.5125,M,34.9925,M,1.0,0007*7F
$GPGGA,103459.0,3114.6807223,N,12135.5476175,E,4,37,1.0,1.5125,M,34.9985,M,1.0,0007*7F
$GPGGA,103500.0,3114.6807222,N,12135.5476183,E,4,37,1.0,1.5125,M,34.9975,M,1.0,0007*7F
$GPGGA,103501.0,3114.6807208,N,12135.5476175,E,4,37,1.0,1.5125,M,34.9925,M,1.0,0007*7F
$GPGGA,103502.0,3114.6807218,N,12135.5476187,E,4,37,1.0,1.5125,M,35.0035,M,1.0,0007*7F
$GPGGA,103503.0,3114.680722,N,12135.5476178,E,4,37,1.0,1.5125,M,35.0015,M,1.0,0007*7F
$GPGGA,103504.0,3114.6807223,N,12135.5476182,E,4,37,1.0,1.5125,M,35.0025,M,1.0,0007*7F
$GPGGA,103505.0,3114.6807223,N,12135.5476187,E,4,37,1.0,1.5125,M,34.9965,M,1.0,0007*7F
$GPGGA,103506.0,3114.6807218,N,12135.5476188,E,4,37,1.0,1.5125,M,35.0025,M,1.0,0007*7F
$GPGGA,103507.0,3114.6807227,N,12135.5476173,E,4,37,1.0,1.5125,M,34.9995,M,1.0,0007*7F
$GPGGA,103508.0,3114.6807227,N,12135.547618,E,4,37,1.0,1.5125,M,34.9975,M,1.0,0007*7F
$GPGGA,103509.0,3114.680722,N,12135.5476175,E,4,37,1.0,1.5125,M,34.9965,M,1.0,0007*7F
$GPGGA,103510.0,3114.6807227,N,12135.5476177,E,4,37,1.0,1.5125,M,34.9995,M,1.0,0007*7F
$GPGGA,103511.0,3114.6807222,N,12135.547618,E,4,37,1.0,1.5125,M,34.9985,M,1.0,0007*7F
$GPGGA,103512.0,3114.6807213,N,12135.5476172,E,4,37,1.0,1.5125,M,34.9975,M,1.0,0007*7F
$GPGGA,103513.0,3114.6807228,N,12135.5476188,E,4,37,1.0,1.5125,M,35.0015,M,1.0,0007*7F
$GPGGA,103514.0,3114.6807203,N,12135.547618,E,4,37,1.0,1.5125,M,35.0025,M,1.0,0007*7F
$GPGGA,103515.0,3114.680721,N,12135.5476172,E,4,37,1.0,1.5125,M,35.0055,M,1.0,0007*7F
$GPGGA,103516.0,3114.6807212,N,12135.5476168,E,4,37,1.0,1.5125,M,35.0065,M,1.0,0007*7F
$GPGGA,103517.0,3114.6807212,N,12135.5476177,E,4,37,1.0,1.5125,M,34.9945,M,1.0,0007*7F
$GPGGA,103518.0,3114.6807227,N,12135.547618,E,4,37,1.0,1.5125,M,34.9945,M,1.0,0007*7F
$GPGGA,103519.0,3114.6807223,N,12135.5476182,E,4,37,1.0,1.5125,M,34.9995,M,1.0,0007*7F
$GPGGA,103520.0,3114.6807218,N,12135.5476173,E,4,37,1.0,1.5125,M,35.0005,M,1.0,0007*7F
$GPGGA,103521.0,3114.6807237,N,12135.5476182,E,4,37,1.0,1.5125,M,34.9995,M,1.0,0007*7F
$GPGGA,103522.0,3114.6807225,N,12135.5476177,E,4,37,1.0,1.5125,M,35.0045,M,1.0,0007*7F
$GPGGA,103523.0,3114.6807218,N,12135.547619,E,4,37,1.0,1.5125,M,35.0015,M,1.0,0007*7F
$GPGGA,103524.0,3114.6807212,N,12135.5476178,E,4,37,1.0,1.5125,M,35.0025,M,1.0,0007*7F
$GPGGA,103525.0,3114.6807217,N,12135.5476177,E,4,37,1.0,1.5125,M,35.0025,M,1.0,0007*7F
$GPGGA,103526.0,3114.6807215,N,12135.5476192,E,4,37,1.0,1.5125,M,35.0025,M,1.0,0007*7F
$GPGGA,103527.0,3114.6807227,N,12135.547618,E,4,37,1.0,1.5125,M,35.0015,M,1.0,0007*7F
$GPGGA,103528.0,3114.6807218,N,12135.547617,E,4,37,1.0,1.5125,M,35.0025,M,1.0,0007*7F
$GPGGA,103529.0,3114.6807225,N,12135.547618,E,4,37,1.0,1.5125,M,34.9895,M,1.0,0007*7F
$GPGGA,103530.0,3114.6807225,N,12135.5476188,E,4,37,1.0,1.5125,M,35.0045,M,1.0,0007*7F
$GPGGA,103531.0,3114.6807228,N,12135.547617,E,4,37,1.0,1.5125,M,34.9955,M,1.0,0007*7F
$GPGGA,103532.0,3114.6807233,N,12135.5476177,E,4,37,1.0,1.5125,M,34.9995,M,1.0,0007*7F
$GPGGA,103533.0,3114.680721,N,12135.5476175,E,4,37,1.0,1.5125,M,35.0025,M,1.0,0007*7F
$GPGGA,103534.0,3114.6807217,N,12135.5476178,E,4,37,1.0,1.5125,M,35.0045,M,1.0,0007*7F
$GPGGA,103535.0,3114.6807222,N,12135.547619,E,4,37,1.0,1.5125,M,34.9985,M,1.0,0007*7F
$GPGGA,103536.0,3114.6807223,N,12135.547618,E,4,37,1.0,1.5125,M,34.9975,M,1.0,0007*7F
$GPGGA,103537.0,3114.6807218,N,12135.5476175,E,4,37,1.0,1.5125,M,35.0005,M,1.0,0007*7F
$GPGGA,103538.0,3114.680722,N,12135.547618,E,4,37,1.0,1.5125,M,35.0035,M,1.0,0007*7F
$GPGGA,103539.0,3114.6807227,N,12135.547619,E,4,37,1.0,1.5125,M,34.9965,M,1.0,0007*7F
$GPGGA,103540.0,3114.6807225,N,12135.5476175,E,4,37,1.0,1.5125,M,35.0055,M,1.0,0007*7F
$GPGGA,103541.0,3114.6807227,N,12135.547619,E,4,37,1.0,1.5125,M,35.0005,M,1.0,0007*7F
$GPGGA,103542.0,3114.680722,N,12135.5476183,E,4,36,1.0,1.5125,M,34.9995,M,1.0,0007*7F
$GPGGA,103543.0,3114.6807225,N,12135.5476178,E,4,36,1.0,1.5125,M,35.0015,M,2.0,0007*7F
$GPGGA,103544.0,3114.6807222,N,12135.5476193,E,4,36,1.0,1.5125,M,34.9965,M,1.0,0007*7F
$GPGGA,103545.0,3114.680722,N,12135.5476187,E,4,36,1.0,1.5125,M,35.0065,M,1.0,0007*7F
$GPGGA,103546.0,3114.6807225,N,12135.5476197,E,4,36,1.0,1.5125,M,35.0025,M,1.0,0007*7F
$GPGGA,103547.0,3114.6807227,N,12135.5476178,E,4,36,1.0,1.5125,M,35.0025,M,1.0,0007*7F
$GPGGA,103548.0,3114.680723,N,12135.5476192,E,4,37,1.0,1.5125,M,35.0035,M,1.0,0007*7F
$GPGGA,103549.0,3114.680722,N,12135.5476183,E,4,37,1.0,1.5125,M,35.0035,M,1.0,0007*7F
$GPGGA,103550.0,3114.6807222,N,12135.5476185,E,4,37,1.0,1.5125,M,34.9995,M,1.0,0007*7F
$GPGGA,103551.0,3114.6807218,N,12135.547619,E,4,37,1.0,1.5125,M,35.0045,M,1.0,0007*7F
$GPGGA,103552.0,3114.680723,N,12135.5476188,E,4,37,1.0,1.5125,M,35.0015,M,1.0,0007*7F
$GPGGA,103553.0,3114.6807227,N,12135.547618,E,4,37,1.0,1.5125,M,35.0005,M,1.0,0007*7F
$GPGGA,103554.0,3114.6807225,N,12135.547618,E,4,37,1.0,1.5125,M,34.9995,M,1.0,0007*7F
$GPGGA,103555.0,3114.6807225,N,12135.5476188,E,4,37,1.0,1.5125,M,35.0025,M,1.0,0007*7F
$GPGGA,103556.0,3114.6807225,N,12135.5476182,E,4,37,1.0,1.5125,M,34.9985,M,1.0,0007*7F
$GPGGA,103557.0,3114.6807215,N,12135.5476178,E,4,37,1.0,1.5125,M,34.9985,M,1.0,0007*7F
$GPGGA,103558.0,3114.6807227,N,12135.547618,E,4,37,1.0,1.5125,M,34.9945,M,1.0,0007*7F
$GPGGA,103559.0,3114.6807225,N,12135.547618,E,4,37,1.0,1.5125,M,35.0025,M,1.0,0007*7F
$GPGGA,103600.0,3114.6807222,N,12135.547616,E,4,37,1.0,1.5125,M,34.9985,M,1.0,0007*7F
$GPGGA,103601.0,3114.6807232,N,12135.5476195,E,4,37,1.0,1.5125,M,34.9915,M,1.0,0007*7F
$GPGGA,103602.0,3114.6807213,N,12135.5476193,E,4,37,1.0,1.5125,M,35.0055,M,1.0,0007*7F
$GPGGA,103603.0,3114.6807233,N,12135.547617,E,4,37,1.0,1.5125,M,35.0005,M,1.0,0007*7F
$GPGGA,103604.0,3114.680722,N,12135.547619,E,4,37,1.0,1.5125,M,35.0015,M,1.0,0007*7F
$GPGGA,103605.0,3114.6807223,N,12135.5476178,E,4,37,1.0,1.5125,M,35.0075,M,1.0,0007*7F
$GPGGA,103606.0,3114.6807225,N,12135.5476193,E,4,37,1.0,1.5125,M,35.0025,M,2.0,0007*7F
$GPGGA,103607.0,3114.6807223,N,12135.5476195,E,4,37,1.0,1.5125,M,35.0045,M,3.0,0007*7F
$GPGGA,103608.0,3114.6807218,N,12135.5476188,E,4,37,1.0,1.5125,M,35.0015,M,1.0,0007*7F
$GPGGA,103609.0,3114.6807213,N,12135.5476192,E,4,37,1.0,1.5125,M,35.0015,M,1.0,0007*7F
$GPGGA,103610.0,3114.6807225,N,12135.5476182,E,4,37,1.0,1.5125,M,35.0005,M,1.0,0007*7F
$GPGGA,103611.0,3114.6807238,N,12135.5476195,E,4,37,1.0,1.5125,M,34.9945,M,1.0,0007*7F
$GPGGA,103612.0,3114.6807223,N,12135.547619,E,4,37,1.0,1.5125,M,35.0015,M,1.0,0007*7F
$GPGGA,103613.0,3114.6807235,N,12135.547618,E,4,37,1.0,1.5125,M,35.0045,M,1.0,0007*7F
$GPGGA,103614.0,3114.6807225,N,12135.5476178,E,4,37,1.0,1.5125,M,34.9975,M,1.0,0007*7F
$GPGGA,103615.0,3114.6807225,N,12135.5476185,E,4,37,1.0,1.5125,M,35.0045,M,1.0,0007*7F
$GPGGA,103616.0,3114.6807223,N,12135.5476178,E,4,37,1.0,1.5125,M,34.9985,M,1.0,0007*7F
$GPGGA,103617.0,3114.6807227,N,12135.5476193,E,4,37,1.0,1.5125,M,35.0015,M,1.0,0007*7F
$GPGGA,103618.0,3114.680722,N,12135.5476187,E,4,37,1.0,1.5125,M,35.0015,M,1.0,0007*7F
$GPGGA,103619.0,3114.6807228,N,12135.5476195,E,4,37,1.0,1.5125,M,34.9995,M,1.0,0007*7F
$GPGGA,103620.0,3114.6807218,N,12135.5476185,E,4,37,1.0,1.5125,M,35.0025,M,1.0,0007*7F
$GPGGA,103621.0,3114.680721,N,12135.5476168,E,4,37,1.0,1.5125,M,34.9955,M,1.0,0007*7F
$GPGGA,103622.0,3114.6807223,N,12135.547619,E,4,37,1.0,1.5125,M,35.0005,M,1.0,0007*7F
$GPGGA,103623.0,3114.6807213,N,12135.5476178,E,4,37,1.0,1.5125,M,34.9975,M,1.0,0007*7F
$GPGGA,103624.0,3114.6807228,N,12135.5476182,E,4,37,1.0,1.5125,M,35.0035,M,1.0,0007*7F
$GPGGA,103625.0,3114.6807222,N,12135.5476175,E,4,37,1.0,1.5125,M,35.0025,M,1.0,0007*7F
$GPGGA,103626.0,3114.6807233,N,12135.5476185,E,4,37,1.0,1.5125,M,35.0045,M,1.0,0007*7F
$GPGGA,103627.0,3114.6807225,N,12135.5476195,E,4,37,1.0,1.5125,M,35.0095,M,1.0,0007*7F
$GPGGA,103628.0,3114.6807223,N,12135.5476177,E,4,37,1.0,1.5125,M,35.0045,M,1.0,0007*7F
$GPGGA,103629.0,3114.6807242,N,12135.5476193,E,4,37,1.0,1.5125,M,35.0095,M,1.0,0007*7F
$GPGGA,103630.0,3114.680724,N,12135.547617,E,4,37,1.0,1.5125,M,35.0045,M,1.0,0007*7F
$GPGGA,103631.0,3114.6807237,N,12135.5476197,E,4,37,1.0,1.5125,M,34.9985,M,1.0,0007*7F
$GPGGA,103632.0,3114.680722,N,12135.5476187,E,4,37,1.0,1.5125,M,35.0035,M,1.0,0007*7F
$GPGGA,103633.0,3114.6807217,N,12135.5476188,E,4,37,1.0,1.5125,M,35.0045,M,1.0,0007*7F
$GPGGA,103634.0,3114.680723,N,12135.5476177,E,4,37,1.0,1.5125,M,35.0025,M,1.0,0007*7F
$GPGGA,103635.0,3114.6807218,N,12135.5476183,E,4,37,1.0,1.5125,M,35.0085,M,1.0,0007*7F
$GPGGA,103636.0,3114.6807207,N,12135.5476175,E,4,37,1.0,1.5125,M,35.0075,M,2.0,0007*7F
$GPGGA,103637.0,3114.6807203,N,12135.5476182,E,4,37,1.0,1.5125,M,35.0105,M,3.0,0007*7F
$GPGGA,103638.0,3114.680722,N,12135.5476193,E,4,37,1.0,1.5125,M,34.9985,M,1.0,0007*7F
$GPGGA,103639.0,3114.6807228,N,12135.5476177,E,4,37,1.0,1.5125,M,34.9995,M,1.0,0007*7F
$GPGGA,103640.0,3114.6807218,N,12135.547618,E,4,37,1.0,1.5125,M,34.9995,M,1.0,0007*7F
$GPGGA,103641.0,3114.6807228,N,12135.5476183,E,4,37,1.0,1.5125,M,35.0035,M,1.0,0007*7F
$GPGGA,103642.0,3114.6807217,N,12135.5476178,E,4,37,1.0,1.5125,M,34.9995,M,1.0,0007*7F
$GPGGA,103643.0,3114.680722,N,12135.5476192,E,4,37,1.0,1.5125,M,35.0015,M,2.0,0007*7F
$GPGGA,103644.0,3114.6807208,N,12135.5476183,E,4,37,1.0,1.5125,M,35.0065,M,1.0,0007*7F
$GPGGA,103645.0,3114.6807228,N,12135.5476193,E,4,37,1.0,1.5125,M,35.0055,M,1.0,0007*7F
$GPGGA,103646.0,3114.6807225,N,12135.5476183,E,4,37,1.0,1.5125,M,35.0055,M,1.0,0007*7F
$GPGGA,103647.0,3114.6807213,N,12135.5476178,E,4,37,1.0,1.5125,M,35.0025,M,1.0,0007*7F
$GPGGA,103648.0,3114.6807223,N,12135.5476198,E,4,37,1.0,1.5125,M,34.9955,M,1.0,0007*7F
$GPGGA,103649.0,3114.6807207,N,12135.5476193,E,4,37,1.0,1.5125,M,35.0075,M,1.0,0007*7F
$GPGGA,103650.0,3114.6807217,N,12135.5476173,E,4,37,1.0,1.5125,M,35.0085,M,1.0,0007*7F
$GPGGA,103651.0,3114.6807205,N,12135.5476187,E,4,37,1.0,1.5125,M,35.0045,M,1.0,0007*7F
$GPGGA,103652.0,3114.6807223,N,12135.5476193,E,4,37,1.0,1.5125,M,35.0075,M,1.0,0007*7F
$GPGGA,103653.0,3114.6807213,N,12135.5476193,E,4,37,1.0,1.5125,M,35.0045,M,1.0,0007*7F
$GPGGA,103654.0,3114.6807207,N,12135.5476178,E,4,37,1.0,1.5125,M,35.0025,M,1.0,0007*7F
$GPGGA,103655.0,3114.6807215,N,12135.5476202,E,4,37,1.0,1.5125,M,35.0005,M,1.0,0007*7F
$GPGGA,103656.0,3114.6807215,N,12135.547618,E,4,37,1.0,1.5125,M,35.0015,M,1.0,0007*7F
$GPGGA,103657.0,3114.6807217,N,12135.5476182,E,4,37,1.0,1.5125,M,35.0045,M,1.0,0007*7F
$GPGGA,103658.0,3114.6807205,N,12135.547619,E,4,37,1.0,1.5125,M,34.9985,M,1.0,0007*7F
$GPGGA,103659.0,3114.68072,N,12135.54762,E,4,37,1.0,1.5125,M,35.0075,M,1.0,0007*7F
$GPGGA,103700.0,3114.6807213,N,12135.5476202,E,4,37,1.0,1.5125,M,35.0105,M,1.0,0007*7F
$GPGGA,103701.0,3114.6807213,N,12135.5476203,E,4,37,1.0,1.5125,M,35.0045,M,1.0,0007*7F
$GPGGA,103702.0,3114.6807215,N,12135.5476192,E,4,37,1.0,1.5125,M,35.0065,M,1.0,0007*7F
$GPGGA,103703.0,3114.6807207,N,12135.5476175,E,4,37,1.0,1.5125,M,34.9965,M,1.0,0007*7F
$GPGGA,103704.0,3114.6807212,N,12135.5476183,E,4,37,1.0,1.5125,M,35.0095,M,1.0,0007*7F
$GPGGA,103705.0,3114.6807225,N,12135.5476175,E,4,37,1.0,1.5125,M,35.0025,M,1.0,0007*7F
$GPGGA,103706.0,3114.6807222,N,12135.5476177,E,4,37,1.0,1.5125,M,35.0055,M,1.0,0007*7F
$GPGGA,103707.0,3114.680722,N,12135.5476183,E,4,37,1.0,1.5125,M,35.0025,M,1.0,0007*7F
$GPGGA,103708.0,3114.680721,N,12135.5476165,E,4,37,1.0,1.5125,M,35.0025,M,1.0,0007*7F
$GPGGA,103709.0,3114.6807198,N,12135.5476175,E,4,37,1.0,1.5125,M,35.0035,M,1.0,0007*7F
$GPGGA,103710.0,3114.6807222,N,12135.5476175,E,4,37,1.0,1.5125,M,34.9995,M,1.0,0007*7F
$GPGGA,103711.0,3114.6807205,N,12135.547619,E,4,37,1.0,1.5125,M,35.0055,M,1.0,0007*7F
$GPGGA,103712.0,3114.68072,N,12135.5476188,E,4,37,1.0,1.5125,M,35.0025,M,1.0,0007*7F
$GPGGA,103713.0,3114.6807222,N,12135.5476197,E,4,37,1.0,1.5125,M,35.0045,M,1.0,0007*7F
$GPGGA,103714.0,3114.6807218,N,12135.5476173,E,4,37,1.0,1.5125,M,34.9965,M,1.0,0007*7F
$GPGGA,103715.0,3114.6807203,N,12135.5476195,E,4,37,1.0,1.5125,M,35.0055,M,1.0,0007*7F
$GPGGA,103716.0,3114.6807208,N,12135.5476172,E,4,37,1.0,1.5125,M,35.0115,M,1.0,0007*7F
$GPGGA,103717.0,3114.6807208,N,12135.5476167,E,4,37,1.0,1.5125,M,35.0035,M,1.0,0007*7F
$GPGGA,103718.0,3114.6807203,N,12135.5476183,E,4,37,1.0,1.5125,M,35.0025,M,1.0,0007*7F
$GPGGA,103719.0,3114.680721,N,12135.5476175,E,4,37,1.0,1.5125,M,34.9985,M,1.0,0007*7F
$GPGGA,103720.0,3114.6807207,N,12135.5476175,E,4,37,1.0,1.5125,M,35.0025,M,1.0,0007*7F
$GPGGA,103721.0,3114.6807198,N,12135.5476192,E,4,37,1.0,1.5125,M,34.9955,M,1.0,0007*7F
$GPGGA,103722.0,3114.6807205,N,12135.5476183,E,4,37,1.0,1.5125,M,35.0085,M,1.0,0007*7F
$GPGGA,103723.0,3114.680722,N,12135.5476178,E,4,37,1.0,1.5125,M,35.0055,M,1.0,0007*7F
$GPGGA,103724.0,3114.6807207,N,12135.5476178,E,4,37,1.0,1.5125,M,35.0045,M,1.0,0007*7F
$GPGGA,103725.0,3114.6807215,N,12135.547619,E,4,37,1.0,1.5125,M,34.9975,M,1.0,0007*7F
$GPGGA,103726.0,3114.6807225,N,12135.547619,E,4,37,1.0,1.5125,M,34.9985,M,1.0,0007*7F
$GPGGA,103727.0,3114.6807225,N,12135.5476173,E,4,37,1.0,1.5125,M,35.0035,M,1.0,0007*7F
$GPGGA,103728.0,3114.6807222,N,12135.5476177,E,4,37,1.0,1.5125,M,35.0015,M,1.0,0007*7F
$GPGGA,103729.0,3114.6807208,N,12135.5476182,E,4,37,1.0,1.5125,M,35.0055,M,1.0,0007*7F
$GPGGA,103730.0,3114.6807205,N,12135.5476183,E,4,37,1.0,1.5125,M,35.0035,M,1.0,0007*7F
$GPGGA,103731.0,3114.6807218,N,12135.5476195,E,4,37,1.0,1.5125,M,35.0055,M,1.0,0007*7F
$GPGGA,103732.0,3114.6807218,N,12135.5476177,E,4,37,1.0,1.5125,M,35.0045,M,1.0,0007*7F
$GPGGA,103733.0,3114.6807217,N,12135.5476175,E,4,37,1.0,1.5125,M,34.9955,M,1.0,0007*7F
$GPGGA,103734.0,3114.6807208,N,12135.5476182,E,4,37,1.0,1.5125,M,35.0085,M,1.0,0007*7F
$GPGGA,103735.0,3114.6807202,N,12135.5476182,E,4,37,1.0,1.5125,M,35.0035,M,1.0,0007*7F
$GPGGA,103736.0,3114.6807203,N,12135.5476183,E,4,37,1.0,1.5125,M,34.9995,M,1.0,0007*7F
$GPGGA,103737.0,3114.6807208,N,12135.5476182,E,4,37,1.0,1.5125,M,34.9965,M,1.0,0007*7F
$GPGGA,103738.0,3114.6807218,N,12135.5476198,E,4,37,1.0,1.5125,M,34.9995,M,1.0,0007*7F
$GPGGA,103739.0,3114.680721,N,12135.5476187,E,4,37,1.0,1.5125,M,35.0055,M,1.0,0007*7F
$GPGGA,103740.0,3114.6807198,N,12135.5476185,E,4,37,1.0,1.5125,M,35.0005,M,1.0,0007*7F
$GPGGA,103741.0,3114.6807218,N,12135.5476185,E,4,37,1.0,1.5125,M,35.0015,M,1.0,0007*7F
$GPGGA,103742.0,3114.6807205,N,12135.547618,E,4,37,1.0,1.5125,M,35.0065,M,1.0,0007*7F
$GPGGA,103743.0,3114.6807212,N,12135.5476178,E,4,37,1.0,1.5125,M,35.0005,M,2.0,0007*7F
$GPGGA,103744.0,3114.6807195,N,12135.5476185,E,4,37,1.0,1.5125,M,35.0055,M,1.0,0007*7F
$GPGGA,103745.0,3114.6807198,N,12135.5476182,E,4,37,1.0,1.5125,M,35.0075,M,1.0,0007*7F
$GPGGA,103746.0,3114.6807215,N,12135.5476193,E,4,37,1.0,1.5125,M,35.0085,M,1.0,0007*7F
$GPGGA,103747.0,3114.6807222,N,12135.5476182,E,4,37,1.0,1.5125,M,35.0085,M,1.0,0007*7F
$GPGGA,103748.0,3114.680721,N,12135.5476185,E,4,37,1.0,1.5125,M,35.0025,M,1.0,0007*7F
$GPGGA,103749.0,3114.6807217,N,12135.5476192,E,4,37,1.0,1.5125,M,35.0015,M,1.0,0007*7F
$GPGGA,103750.0,3114.6807205,N,12135.5476187,E,4,37,1.0,1.5125,M,35.0055,M,1.0,0007*7F
$GPGGA,103751.0,3114.6807208,N,12135.5476178,E,4,37,1.0,1.5125,M,35.0135,M,1.0,0007*7F
$GPGGA,103752.0,3114.6807208,N,12135.5476182,E,4,37,1.0,1.5125,M,35.0025,M,1.0,0007*7F
$GPGGA,103753.0,3114.6807222,N,12135.5476182,E,4,37,1.0,1.5125,M,35.0035,M,1.0,0007*7F
$GPGGA,103754.0,3114.6807223,N,12135.5476187,E,4,37,1.0,1.5125,M,35.0075,M,1.0,0007*7F
$GPGGA,103755.0,3114.6807215,N,12135.5476178,E,4,37,1.0,1.5125,M,35.0035,M,1.0,0007*7F
$GPGGA,103756.0,3114.6807215,N,12135.5476188,E,4,37,1.0,1.5125,M,34.9965,M,1.0,0007*7F
$GPGGA,103757.0,3114.6807207,N,12135.5476183,E,4,37,1.0,1.5125,M,35.0005,M,1.0,0007*7F
$GPGGA,103758.0,3114.6807213,N,12135.547619,E,4,37,1.0,1.5125,M,35.0025,M,1.0,0007*7F
$GPGGA,103759.0,3114.6807213,N,12135.547619,E,4,37,1.0,1.5125,M,35.0065,M,1.0,0007*7F
$GPGGA,103800.0,3114.6807222,N,12135.5476177,E,4,37,1.0,1.5125,M,35.0045,M,1.0,0007*7F
$GPGGA,103801.0,3114.6807222,N,12135.5476182,E,4,37,1.0,1.5125,M,35.0125,M,1.0,0007*7F
$GPGGA,103802.0,3114.6807218,N,12135.5476188,E,4,37,1.0,1.5125,M,34.9995,M,1.0,0007*7F
$GPGGA,103803.0,3114.6807235,N,12135.5476177,E,4,37,1.0,1.5125,M,34.9955,M,1.0,0007*7F
$GPGGA,103804.0,3114.6807218,N,12135.5476178,E,4,37,1.0,1.5125,M,35.0035,M,1.0,0007*7F
$GPGGA,103805.0,3114.680722,N,12135.547619,E,4,37,1.0,1.5125,M,35.0025,M,1.0,0007*7F
$GPGGA,103806.0,3114.6807223,N,12135.5476183,E,4,37,1.0,1.5125,M,35.0125,M,1.0,0007*7F
$GPGGA,103807.0,3114.6807228,N,12135.5476192,E,4,37,1.0,1.5125,M,34.9955,M,1.0,0007*7F
$GPGGA,103808.0,3114.680722,N,12135.5476175,E,4,37,1.0,1.5125,M,35.0025,M,1.0,0007*7F
$GPGGA,103809.0,3114.6807228,N,12135.5476188,E,4,37,1.0,1.5125,M,35.0015,M,1.0,0007*7F
$GPGGA,103810.0,3114.6807232,N,12135.5476185,E,4,37,1.0,1.5125,M,35.0035,M,1.0,0007*7F
$GPGGA,103811.0,3114.6807223,N,12135.547619,E,4,37,1.0,1.5125,M,35.0125,M,1.0,0007*7F
$GPGGA,103812.0,3114.680722,N,12135.5476182,E,4,37,1.0,1.5125,M,35.0065,M,1.0,0007*7F
$GPGGA,103813.0,3114.6807237,N,12135.547618,E,4,37,1.0,1.5125,M,35.0005,M,1.0,0007*7F
$GPGGA,103814.0,3114.6807228,N,12135.5476188,E,4,37,1.0,1.5125,M,35.0065,M,1.0,0007*7F
$GPGGA,103815.0,3114.6807232,N,12135.5476185,E,4,37,1.0,1.5125,M,35.0045,M,1.0,0007*7F
$GPGGA,103816.0,3114.6807222,N,12135.54762,E,4,37,1.0,1.5125,M,34.9995,M,1.0,0007*7F
$GPGGA,103817.0,3114.6807223,N,12135.5476178,E,4,37,1.0,1.5125,M,35.0035,M,1.0,0007*7F
$GPGGA,103818.0,3114.6807232,N,12135.5476178,E,4,37,1.0,1.5125,M,35.0065,M,1.0,0007*7F
$GPGGA,103819.0,3114.6807225,N,12135.5476188,E,4,37,1.0,1.5125,M,35.0015,M,1.0,0007*7F
$GPGGA,103820.0,3114.6807223,N,12135.547618,E,4,37,1.0,1.5125,M,34.9985,M,1.0,0007*7F
$GPGGA,103821.0,3114.6807238,N,12135.5476182,E,4,37,1.0,1.5125,M,35.0025,M,1.0,0007*7F
$GPGGA,103822.0,3114.6807228,N,12135.5476192,E,4,37,1.0,1.5125,M,35.0025,M,1.0,0007*7F
$GPGGA,103823.0,3114.6807222,N,12135.5476173,E,4,37,1.0,1.5125,M,35.0035,M,1.0,0007*7F
$GPGGA,103824.0,3114.6807225,N,12135.5476185,E,4,37,1.0,1.5125,M,34.9995,M,1.0,0007*7F
$GPGGA,103825.0,3114.680723,N,12135.5476177,E,4,37,1.0,1.5125,M,35.0025,M,1.0,0007*7F
$GPGGA,103826.0,3114.680723,N,12135.5476182,E,4,37,1.0,1.5125,M,35.0055,M,1.0,0007*7F
$GPGGA,103827.0,3114.6807217,N,12135.5476178,E,4,37,1.0,1.5125,M,35.0065,M,1.0,0007*7F
$GPGGA,103828.0,3114.680722,N,12135.5476177,E,4,37,1.0,1.5125,M,35.0055,M,1.0,0007*7F
$GPGGA,103829.0,3114.680722,N,12135.5476185,E,4,37,1.0,1.5125,M,34.9985,M,1.0,0007*7F
$GPGGA,103830.0,3114.6807215,N,12135.5476178,E,4,37,1.0,1.5125,M,35.0025,M,1.0,0007*7F
$GPGGA,103831.0,3114.6807222,N,12135.5476195,E,4,37,1.0,1.5125,M,35.0035,M,1.0,0007*7F
$GPGGA,103832.0,3114.6807218,N,12135.5476178,E,4,37,1.0,1.5125,M,35.0045,M,1.0,0007*7F
$GPGGA,103833.0,3114.6807222,N,12135.5476173,E,4,37,1.0,1.5125,M,34.9995,M,1.0,0007*7F
$GPGGA,103834.0,3114.6807208,N,12135.5476177,E,4,37,1.0,1.5125,M,35.0115,M,1.0,0007*7F
$GPGGA,103835.0,3114.6807208,N,12135.5476183,E,4,37,1.0,1.5125,M,35.0075,M,1.0,0007*7F
$GPGGA,103836.0,3114.6807218,N,12135.547619,E,4,37,1.0,1.5125,M,35.0045,M,1.0,0007*7F
$GPGGA,103837.0,3114.6807203,N,12135.5476185,E,4,37,1.0,1.5125,M,35.0075,M,1.0,0007*7F
$GPGGA,103838.0,3114.6807215,N,12135.5476195,E,4,37,1.0,1.5125,M,35.0075,M,1.0,0007*7F
$GPGGA,103839.0,3114.6807215,N,12135.5476178,E,4,37,1.0,1.5125,M,35.0065,M,1.0,0007*7F
$GPGGA,103840.0,3114.680721,N,12135.5476183,E,4,37,1.0,1.5125,M,35.0085,M,1.0,0007*7F
$GPGGA,103841.0,3114.6807218,N,12135.5476168,E,4,37,1.0,1.5125,M,35.0085,M,1.0,0007*7F
$GPGGA,103842.0,3114.6807207,N,12135.5476183,E,4,37,1.0,1.5125,M,35.0085,M,1.0,0007*7F
$GPGGA,103843.0,3114.680721,N,12135.5476183,E,4,37,1.0,1.5125,M,35.0025,M,2.0,0007*7F
$GPGGA,103844.0,3114.6807207,N,12135.5476178,E,4,37,1.0,1.5125,M,35.0075,M,1.0,0007*7F
$GPGGA,103845.0,3114.6807232,N,12135.547618,E,4,37,1.0,1.5125,M,35.0035,M,1.0,0007*7F
$GPGGA,103846.0,3114.6807202,N,12135.5476182,E,4,37,1.0,1.5125,M,35.0025,M,1.0,0007*7F
$GPGGA,103847.0,3114.6807212,N,12135.5476182,E,4,37,1.0,1.5125,M,35.0085,M,1.0,0007*7F
$GPGGA,103848.0,3114.6807213,N,12135.5476197,E,4,37,1.0,1.5125,M,35.0145,M,1.0,0007*7F
$GPGGA,103849.0,3114.680721,N,12135.5476198,E,4,37,1.0,1.5125,M,35.0095,M,1.0,0007*7F
$GPGGA,103850.0,3114.680721,N,12135.5476178,E,4,37,1.0,1.5125,M,35.0115,M,1.0,0007*7F
$GPGGA,103851.0,3114.6807213,N,12135.5476188,E,4,37,1.0,1.5125,M,35.0175,M,1.0,0007*7F
$GPGGA,103852.0,3114.680721,N,12135.5476172,E,4,37,1.0,1.5125,M,35.0055,M,1.0,0007*7F
$GPGGA,103853.0,3114.6807223,N,12135.5476195,E,4,37,1.0,1.5125,M,35.0095,M,1.0,0007*7F
$GPGGA,103854.0,3114.68072,N,12135.5476185,E,4,37,1.0,1.5125,M,35.0065,M,1.0,0007*7F
$GPGGA,103855.0,3114.6807208,N,12135.5476172,E,4,37,1.0,1.5125,M,35.0065,M,1.0,0007*7F
$GPGGA,103856.0,3114.6807203,N,12135.5476168,E,4,37,1.0,1.5125,M,35.0025,M,1.0,0007*7F
$GPGGA,103857.0,3114.6807218,N,12135.547619,E,4,37,1.0,1.5125,M,35.0075,M,1.0,0007*7F
$GPGGA,103858.0,3114.680721,N,12135.5476173,E,4,37,1.0,1.5125,M,35.0095,M,1.0,0007*7F
$GPGGA,103859.0,3114.6807227,N,12135.5476185,E,4,37,1.0,1.5125,M,35.0155,M,1.0,0007*7F
$GPGGA,103900.0,3114.680722,N,12135.5476182,E,4,37,1.0,1.5125,M,35.0065,M,1.0,0007*7F
$GPGGA,103901.0,3114.6807223,N,12135.5476175,E,4,37,1.0,1.5125,M,35.0125,M,1.0,0007*7F
$GPGGA,103902.0,3114.6807222,N,12135.5476158,E,4,37,1.0,1.5125,M,35.0075,M,1.0,0007*7F
$GPGGA,103903.0,3114.6807218,N,12135.5476177,E,4,37,1.0,1.5125,M,35.0125,M,1.0,0007*7F
$GPGGA,103904.0,3114.680721,N,12135.5476178,E,4,37,1.0,1.5125,M,35.0065,M,1.0,0007*7F
$GPGGA,103905.0,3114.6807208,N,12135.5476175,E,4,37,1.0,1.5125,M,35.0165,M,1.0,0007*7F
$GPGGA,103906.0,3114.6807213,N,12135.5476175,E,4,37,1.0,1.5125,M,35.0105,M,1.0,0007*7F
$GPGGA,103907.0,3114.6807217,N,12135.5476175,E,4,37,1.0,1.5125,M,35.0085,M,1.0,0007*7F
$GPGGA,103908.0,3114.6807222,N,12135.5476173,E,4,37,1.0,1.5125,M,35.0165,M,1.0,0007*7F
$GPGGA,103909.0,3114.6807203,N,12135.5476185,E,4,37,1.0,1.5125,M,35.0065,M,1.0,0007*7F
$GPGGA,103910.0,3114.6807195,N,12135.5476177,E,4,37,1.0,1.5125,M,35.0105,M,1.0,0007*7F
$GPGGA,103911.0,3114.6807207,N,12135.5476183,E,4,37,1.0,1.5125,M,35.0135,M,1.0,0007*7F
$GPGGA,103912.0,3114.6807213,N,12135.5476167,E,4,37,1.0,1.5125,M,35.0165,M,1.0,0007*7F
$GPGGA,103913.0,3114.6807205,N,12135.5476183,E,4,37,1.0,1.5125,M,35.0105,M,1.0,0007*7F
$GPGGA,103914.0,3114.6807208,N,12135.5476175,E,4,37,1.0,1.5125,M,35.0095,M,1.0,0007*7F
$GPGGA,103915.0,3114.6807218,N,12135.5476188,E,4,37,1.0,1.5125,M,35.0005,M,1.0,0007*7F
$GPGGA,103916.0,3114.6807212,N,12135.5476187,E,4,37,1.0,1.5125,M,35.0105,M,1.0,0007*7F
$GPGGA,103917.0,3114.6807213,N,12135.5476178,E,4,37,1.0,1.5125,M,35.0115,M,1.0,0007*7F
$GPGGA,103918.0,3114.6807208,N,12135.5476188,E,4,37,1.0,1.5125,M,35.0075,M,1.0,0007*7F
$GPGGA,103919.0,3114.6807205,N,12135.547618,E,4,37,1.0,1.5125,M,35.0105,M,1.0,0007*7F
$GPGGA,103920.0,3114.6807202,N,12135.5476183,E,4,37,1.0,1.5125,M,35.0105,M,1.0,0007*7F
$GPGGA,103921.0,3114.680722,N,12135.547617,E,4,37,1.0,1.5125,M,35.0075,M,1.0,0007*7F
$GPGGA,103922.0,3114.680721,N,12135.5476188,E,4,37,1.0,1.5125,M,35.0055,M,1.0,0007*7F
$GPGGA,103923.0,3114.680722,N,12135.5476185,E,4,37,1.0,1.5125,M,35.0135,M,1.0,0007*7F
$GPGGA,103924.0,3114.6807205,N,12135.5476178,E,4,37,1.0,1.5125,M,35.0125,M,1.0,0007*7F
$GPGGA,103925.0,3114.680721,N,12135.5476182,E,4,37,1.0,1.5125,M,35.0055,M,1.0,0007*7F
$GPGGA,103926.0,3114.6807222,N,12135.547617,E,4,37,1.0,1.5125,M,35.0145,M,1.0,0007*7F
$GPGGA,103927.0,3114.6807212,N,12135.5476178,E,4,37,1.0,1.5125,M,35.0115,M,1.0,0007*7F
$GPGGA,103928.0,3114.680721,N,12135.5476177,E,4,37,1.0,1.5125,M,35.0175,M,1.0,0007*7F
$GPGGA,103929.0,3114.6807207,N,12135.5476187,E,4,37,1.0,1.5125,M,35.0115,M,1.0,0007*7F
$GPGGA,103930.0,3114.6807213,N,12135.5476175,E,4,37,1.0,1.5125,M,35.0115,M,1.0,0007*7F
$GPGGA,103931.0,3114.6807202,N,12135.5476182,E,4,37,1.0,1.5125,M,35.0095,M,1.0,0007*7F
$GPGGA,103932.0,3114.6807205,N,12135.5476168,E,4,37,1.0,1.5125,M,35.0165,M,1.0,0007*7F
$GPGGA,103933.0,3114.6807218,N,12135.5476192,E,4,37,1.0,1.5125,M,35.0125,M,1.0,0007*7F
$GPGGA,103934.0,3114.680721,N,12135.5476182,E,4,37,1.0,1.5125,M,35.0145,M,1.0,0007*7F
$GPGGA,103935.0,3114.680721,N,12135.5476178,E,4,37,1.0,1.5125,M,35.0055,M,1.0,0007*7F
$GPGGA,103936.0,3114.68072,N,12135.5476192,E,4,37,1.0,1.5125,M,35.0155,M,1.0,0007*7F
$GPGGA,103937.0,3114.68072,N,12135.5476173,E,4,37,1.0,1.5125,M,35.0085,M,1.0,0007*7F
$GPGGA,103938.0,3114.6807193,N,12135.5476187,E,4,37,1.0,1.5125,M,35.0095,M,1.0,0007*7F
$GPGGA,103939.0,3114.680722,N,12135.5476193,E,4,37,1.0,1.5125,M,35.0155,M,1.0,0007*7F
$GPGGA,103940.0,3114.680721,N,12135.5476182,E,4,37,1.0,1.5125,M,35.0105,M,1.0,0007*7F
$GPGGA,103941.0,3114.6807208,N,12135.5476172,E,4,37,1.0,1.5125,M,35.0085,M,1.0,0007*7F
$GPGGA,103942.0,3114.6807203,N,12135.5476185,E,4,37,1.0,1.5125,M,35.0125,M,1.0,0007*7F
$GPGGA,103943.0,3114.6807212,N,12135.5476192,E,4,37,1.0,1.5125,M,35.0095,M,2.0,0007*7F
$GPGGA,103944.0,3114.6807198,N,12135.5476183,E,4,37,1.0,1.5125,M,35.0105,M,1.0,0007*7F
$GPGGA,103945.0,3114.6807207,N,12135.5476183,E,4,37,1.0,1.5125,M,35.0115,M,1.0,0007*7F
$GPGGA,103946.0,3114.6807205,N,12135.547619,E,4,37,1.0,1.5125,M,35.0145,M,1.0,0007*7F
$GPGGA,103947.0,3114.6807212,N,12135.547619,E,4,37,1.0,1.5125,M,35.0095,M,1.0,0007*7F
$GPGGA,103948.0,3114.6807217,N,12135.5476193,E,4,37,1.0,1.5125,M,35.0105,M,1.0,0007*7F
$GPGGA,103949.0,3114.6807207,N,12135.5476175,E,4,37,1.0,1.5125,M,35.0015,M,1.0,0007*7F
$GPGGA,103950.0,3114.680721,N,12135.5476193,E,4,37,1.0,1.5125,M,35.0065,M,1.0,0007*7F
$GPGGA,103951.0,3114.680722,N,12135.5476195,E,4,37,1.0,1.5125,M,35.0065,M,1.0,0007*7F
$GPGGA,103952.0,3114.680722,N,12135.5476198,E,4,37,1.0,1.5125,M,35.0135,M,1.0,0007*7F
$GPGGA,103953.0,3114.6807217,N,12135.5476185,E,4,37,1.0,1.5125,M,35.0115,M,1.0,0007*7F
$GPGGA,103954.0,3114.6807215,N,12135.5476177,E,4,37,1.0,1.5125,M,35.0085,M,1.0,0007*7F
$GPGGA,103955.0,3114.6807202,N,12135.547617,E,4,37,1.0,1.5125,M,35.0175,M,1.0,0007*7F
$GPGGA,103956.0,3114.6807203,N,12135.5476178,E,4,37,1.0,1.5125,M,35.0085,M,1.0,0007*7F
$GPGGA,103957.0,3114.6807212,N,12135.5476185,E,4,37,1.0,1.5125,M,35.0075,M,1.0,0007*7F
$GPGGA,103958.0,3114.680721,N,12135.5476197,E,4,37,1.0,1.5125,M,35.0105,M,1.0,0007*7F
$GPGGA,103959.0,3114.680721,N,12135.5476188,E,4,37,1.0,1.5125,M,35.0105,M,1.0,0007*7F
$GPGGA,104000.0,3114.6807207,N,12135.5476187,E,4,37,1.0,1.5125,M,35.0195,M,1.0,0007*7F
$GPGGA,104001.0,3114.6807215,N,12135.5476203,E,4,37,1.0,1.5125,M,35.0165,M,1.0,0007*7F
$GPGGA,104002.0,3114.6807203,N,12135.54762,E,4,37,1.0,1.5125,M,35.0105,M,1.0,0007*7F
$GPGGA,104003.0,3114.6807198,N,12135.5476192,E,4,37,1.0,1.5125,M,35.0075,M,1.0,0007*7F
$GPGGA,104004.0,3114.68072,N,12135.547619,E,4,37,1.0,1.5125,M,35.0165,M,1.0,0007*7F
$GPGGA,104005.0,3114.6807212,N,12135.5476182,E,4,37,1.0,1.5125,M,35.0115,M,1.0,0007*7F
$GPGGA,104006.0,3114.6807215,N,12135.5476197,E,4,37,1.0,1.5125,M,35.0175,M,1.0,0007*7F
$GPGGA,104007.0,3114.6807202,N,12135.5476173,E,4,37,1.0,1.5125,M,35.0175,M,1.0,0007*7F
$GPGGA,104008.0,3114.6807208,N,12135.5476187,E,4,37,1.0,1.5125,M,35.0035,M,1.0,0007*7F
$GPGGA,104009.0,3114.6807215,N,12135.5476188,E,4,37,1.0,1.5125,M,35.0105,M,1.0,0007*7F
$GPGGA,104010.0,3114.6807203,N,12135.5476182,E,4,37,1.0,1.5125,M,35.0075,M,1.0,0007*7F
$GPGGA,104011.0,3114.6807203,N,12135.5476192,E,4,37,1.0,1.5125,M,35.0105,M,1.0,0007*7F
$GPGGA,104012.0,3114.6807205,N,12135.5476188,E,4,37,1.0,1.5125,M,35.0145,M,1.0,0007*7F
$GPGGA,104013.0,3114.6807215,N,12135.5476178,E,4,37,1.0,1.5125,M,35.0115,M,1.0,0007*7F
$GPGGA,104014.0,3114.6807213,N,12135.5476195,E,4,37,1.0,1.5125,M,35.0105,M,1.0,0007*7F
$GPGGA,104015.0,3114.6807212,N,12135.5476185,E,4,37,1.0,1.5125,M,35.0085,M,1.0,0007*7F
$GPGGA,104016.0,3114.6807213,N,12135.5476185,E,4,37,1.0,1.5125,M,35.0075,M,1.0,0007*7F
$GPGGA,104017.0,3114.6807207,N,12135.5476188,E,4,37,1.0,1.5125,M,35.0085,M,1.0,0007*7F
$GPGGA,104018.0,3114.680722,N,12135.5476192,E,4,37,1.0,1.5125,M,35.0085,M,1.0,0007*7F
$GPGGA,104019.0,3114.680721,N,12135.5476193,E,4,37,1.0,1.5125,M,35.0135,M,1.0,0007*7F
$GPGGA,104020.0,3114.6807208,N,12135.547619,E,4,37,1.0,1.5125,M,35.0085,M,1.0,0007*7F
$GPGGA,104021.0,3114.6807208,N,12135.5476183,E,4,37,1.0,1.5125,M,35.0085,M,1.0,0007*7F
$GPGGA,104022.0,3114.68072,N,12135.54762,E,4,37,1.0,1.5125,M,35.0005,M,1.0,0007*7F
$GPGGA,104023.0,3114.6807208,N,12135.5476195,E,4,37,1.0,1.5125,M,35.0135,M,1.0,0007*7F
$GPGGA,104024.0,3114.6807213,N,12135.5476185,E,4,37,1.0,1.5125,M,35.0085,M,1.0,0007*7F
$GPGGA,104025.0,3114.6807212,N,12135.5476177,E,4,37,1.0,1.5125,M,35.0115,M,1.0,0007*7F
$GPGGA,104026.0,3114.6807198,N,12135.5476172,E,4,37,1.0,1.5125,M,35.0095,M,1.0,0007*7F
$GPGGA,104027.0,3114.6807205,N,12135.5476188,E,4,37,1.0,1.5125,M,35.0065,M,1.0,0007*7F
$GPGGA,104028.0,3114.6807208,N,12135.5476188,E,4,37,1.0,1.5125,M,35.0085,M,1.0,0007*7F
$GPGGA,104029.0,3114.6807213,N,12135.5476185,E,4,37,1.0,1.5125,M,35.0135,M,1.0,0007*7F
$GPGGA,104030.0,3114.6807215,N,12135.5476187,E,4,37,1.0,1.5125,M,35.0065,M,1.0,0007*7F
$GPGGA,104031.0,3114.6807227,N,12135.547618,E,4,37,1.0,1.5125,M,35.0055,M,1.0,0007*7F
$GPGGA,104032.0,3114.680721,N,12135.5476177,E,4,37,1.0,1.5125,M,35.0055,M,1.0,0007*7F
$GPGGA,104033.0,3114.680721,N,12135.5476173,E,4,37,1.0,1.5125,M,35.0025,M,1.0,0007*7F
$GPGGA,104034.0,3114.6807212,N,12135.547619,E,4,37,1.0,1.5125,M,35.0035,M,1.0,0007*7F
$GPGGA,104035.0,3114.6807202,N,12135.5476183,E,4,37,1.0,1.5125,M,35.0085,M,1.0,0007*7F
$GPGGA,104036.0,3114.6807218,N,12135.547619,E,4,37,1.0,1.5125,M,35.0135,M,1.0,0007*7F
$GPGGA,104037.0,3114.6807215,N,12135.5476182,E,4,37,1.0,1.5125,M,35.0075,M,1.0,0007*7F
$GPGGA,104038.0,3114.6807197,N,12135.5476178,E,4,37,1.0,1.5125,M,35.0085,M,1.0,0007*7F
$GPGGA,104039.0,3114.6807213,N,12135.5476167,E,4,37,1.0,1.5125,M,35.0065,M,1.0,0007*7F
$GPGGA,104040.0,3114.6807208,N,12135.5476175,E,4,37,1.0,1.5125,M,35.0105,M,1.0,0007*7F
$GPGGA,104041.0,3114.6807212,N,12135.5476168,E,4,37,1.0,1.5125,M,35.0035,M,1.0,0007*7F
$GPGGA,104042.0,3114.680721,N,12135.547619,E,4,37,1.0,1.5125,M,35.0045,M,1.0,0007*7F
$GPGGA,104043.0,3114.6807207,N,12135.5476192,E,4,37,1.0,1.5125,M,35.0015,M,2.0,0007*7F
$GPGGA,104044.0,3114.6807212,N,12135.5476188,E,4,37,1.0,1.5125,M,35.0145,M,1.0,0007*7F
$GPGGA,104045.0,3114.680721,N,12135.5476188,E,4,37,1.0,1.5125,M,35.0085,M,1.0,0007*7F
$GPGGA,104046.0,3114.6807205,N,12135.5476187,E,4,37,1.0,1.5125,M,35.0075,M,1.0,0007*7F
$GPGGA,104047.0,3114.6807208,N,12135.547619,E,4,37,1.0,1.5125,M,35.0175,M,1.0,0007*7F
$GPGGA,104048.0,3114.6807228,N,12135.5476182,E,4,37,1.0,1.5125,M,35.0045,M,1.0,0007*7F
$GPGGA,104049.0,3114.6807218,N,12135.5476177,E,4,37,1.0,1.5125,M,35.0095,M,1.0,0007*7F
$GPGGA,104050.0,3114.6807213,N,12135.5476175,E,4,37,1.0,1.5125,M,35.0015,M,1.0,0007*7F
$GPGGA,104051.0,3114.6807213,N,12135.5476188,E,4,37,1.0,1.5125,M,35.0035,M,1.0,0007*7F
$GPGGA,104052.0,3114.6807215,N,12135.5476195,E,4,37,1.0,1.5125,M,35.0075,M,1.0,0007*7F
$GPGGA,104053.0,3114.6807212,N,12135.5476178,E,4,37,1.0,1.5125,M,35.0115,M,1.0,0007*7F
$GPGGA,104054.0,3114.6807223,N,12135.5476185,E,4,37,1.0,1.5125,M,35.0015,M,1.0,0007*7F
$GPGGA,104055.0,3114.680723,N,12135.5476193,E,4,37,1.0,1.5125,M,34.9985,M,1.0,0007*7F
$GPGGA,104056.0,3114.6807225,N,12135.5476192,E,4,37,1.0,1.5125,M,35.0095,M,1.0,0007*7F
$GPGGA,104057.0,3114.6807222,N,12135.5476185,E,4,37,1.0,1.5125,M,35.0075,M,1.0,0007*7F
$GPGGA,104058.0,3114.6807215,N,12135.5476192,E,4,37,1.0,1.5125,M,35.0035,M,1.0,0007*7F
$GPGGA,104059.0,3114.680722,N,12135.5476195,E,4,37,1.0,1.5125,M,35.0085,M,1.0,0007*7F
$GPGGA,104100.0,3114.6807232,N,12135.5476187,E,4,37,1.0,1.5125,M,35.0055,M,1.0,0007*7F
$GPGGA,104101.0,3114.6807212,N,12135.54762,E,4,37,1.0,1.5125,M,35.0025,M,1.0,0007*7F
$GPGGA,104102.0,3114.6807232,N,12135.5476177,E,4,37,1.0,1.5125,M,35.0045,M,1.0,0007*7F
$GPGGA,104103.0,3114.6807213,N,12135.5476182,E,4,37,1.0,1.5125,M,35.0055,M,1.0,0007*7F
$GPGGA,104104.0,3114.6807222,N,12135.5476185,E,4,37,1.0,1.5125,M,34.9995,M,1.0,0007*7F
$GPGGA,104105.0,3114.680723,N,12135.5476188,E,4,37,1.0,1.5125,M,35.0085,M,1.0,0007*7F
$GPGGA,104106.0,3114.6807207,N,12135.5476193,E,4,37,1.0,1.5125,M,35.0125,M,1.0,0007*7F
$GPGGA,104107.0,3114.6807215,N,12135.547618,E,4,37,1.0,1.5125,M,35.0015,M,1.0,0007*7F
$GPGGA,104108.0,3114.6807228,N,12135.5476187,E,4,37,1.0,1.5125,M,35.0055,M,1.0,0007*7F
$GPGGA,104109.0,3114.6807228,N,12135.5476193,E,4,37,1.0,1.5125,M,35.0085,M,1.0,0007*7F
$GPGGA,104110.0,3114.6807215,N,12135.5476177,E,4,37,1.0,1.5125,M,35.0045,M,1.0,0007*7F
$GPGGA,104111.0,3114.680721,N,12135.5476183,E,4,37,1.0,1.5125,M,35.0125,M,1.0,0007*7F
$GPGGA,104112.0,3114.6807215,N,12135.5476198,E,4,37,1.0,1.5125,M,35.0025,M,1.0,0007*7F
$GPGGA,104113.0,3114.6807208,N,12135.5476195,E,4,37,1.0,1.5125,M,35.0145,M,1.0,0007*7F
$GPGGA,104114.0,3114.6807207,N,12135.5476188,E,4,37,1.0,1.5125,M,35.0025,M,1.0,0007*7F
$GPGGA,104115.0,3114.6807217,N,12135.5476193,E,4,37,1.0,1.5125,M,35.0085,M,1.0,0007*7F
$GPGGA,104116.0,3114.6807215,N,12135.5476187,E,4,37,1.0,1.5125,M,35.0055,M,1.0,0007*7F
$GPGGA,104117.0,3114.6807212,N,12135.5476187,E,4,37,1.0,1.5125,M,35.0035,M,1.0,0007*7F
$GPGGA,104118.0,3114.6807215,N,12135.5476177,E,4,37,1.0,1.5125,M,34.9995,M,1.0,0007*7F
$GPGGA,104119.0,3114.6807227,N,12135.547618,E,4,37,1.0,1.5125,M,34.9985,M,1.0,0007*7F
$GPGGA,104120.0,3114.6807218,N,12135.5476185,E,4,37,1.0,1.5125,M,35.0005,M,1.0,0007*7F
$GPGGA,104121.0,3114.6807213,N,12135.5476188,E,4,37,1.0,1.5125,M,35.0005,M,1.0,0007*7F
$GPGGA,104122.0,3114.6807228,N,12135.5476177,E,4,37,1.0,1.5125,M,34.9995,M,1.0,0007*7F
$GPGGA,104123.0,3114.6807228,N,12135.5476185,E,4,37,1.0,1.5125,M,35.0025,M,1.0,0007*7F
$GPGGA,104124.0,3114.6807222,N,12135.5476185,E,4,37,1.0,1.5125,M,34.9985,M,1.0,0007*7F
$GPGGA,104125.0,3114.6807225,N,12135.54762,E,4,37,1.0,1.5125,M,35.0085,M,1.0,0007*7F
$GPGGA,104126.0,3114.6807222,N,12135.5476183,E,4,37,1.0,1.5125,M,35.0055,M,1.0,0007*7F
$GPGGA,104127.0,3114.680722,N,12135.5476185,E,4,37,1.0,1.5125,M,35.0065,M,1.0,0007*7F
$GPGGA,104128.0,3114.6807228,N,12135.5476182,E,4,37,1.0,1.5125,M,35.0055,M,1.0,0007*7F
$GPGGA,104129.0,3114.6807215,N,12135.5476193,E,4,37,1.0,1.5125,M,35.0095,M,1.0,0007*7F
$GPGGA,104130.0,3114.6807208,N,12135.5476182,E,4,37,1.0,1.5125,M,35.0045,M,1.0,0007*7F
$GPGGA,104131.0,3114.6807225,N,12135.5476183,E,4,37,1.0,1.5125,M,34.9965,M,1.0,0007*7F
$GPGGA,104132.0,3114.6807215,N,12135.547619,E,4,37,1.0,1.5125,M,35.0035,M,1.0,0007*7F
$GPGGA,104133.0,3114.6807218,N,12135.5476183,E,4,37,1.0,1.5125,M,35.0095,M,1.0,0007*7F
$GPGGA,104134.0,3114.6807205,N,12135.547619,E,4,37,1.0,1.5125,M,34.9975,M,1.0,0007*7F
$GPGGA,104135.0,3114.6807222,N,12135.547618,E,4,37,1.0,1.5125,M,35.0035,M,1.0,0007*7F
$GPGGA,104136.0,3114.680722,N,12135.5476172,E,4,37,1.0,1.5125,M,35.0035,M,1.0,0007*7F
$GPGGA,104137.0,3114.6807218,N,12135.5476182,E,4,37,1.0,1.5125,M,34.9995,M,1.0,0007*7F
$GPGGA,104138.0,3114.6807223,N,12135.5476172,E,4,37,1.0,1.5125,M,35.0035,M,1.0,0007*7F
$GPGGA,104139.0,3114.6807217,N,12135.5476178,E,4,37,1.0,1.5125,M,35.0035,M,1.0,0007*7F
$GPGGA,104140.0,3114.6807223,N,12135.5476195,E,4,37,1.0,1.5125,M,35.0025,M,1.0,0007*7F
$GPGGA,104141.0,3114.6807223,N,12135.5476178,E,4,37,1.0,1.5125,M,35.0045,M,1.0,0007*7F
$GPGGA,104142.0,3114.6807222,N,12135.5476172,E,4,37,1.0,1.5125,M,34.9935,M,1.0,0007*7F
