$GPGGA,055229.00,3114.68340952,N,12135.53967167,E,4,20,0.8,26.657,M,11.575,M,3.0,1448*73
$GPGGA,055230.00,3114.68340894,N,12135.53967178,E,4,18,0.8,26.652,M,11.575,M,1.0,1448*72
$GPGGA,055231.00,3114.68341101,N,12135.53967108,E,4,19,0.8,26.658,M,11.575,M,1.0,1448*7B
$GPGGA,055232.00,3114.68341002,N,12135.53967084,E,4,19,0.8,26.661,M,11.575,M,1.0,1448*75
$GPGGA,055233.00,3114.68341071,N,12135.53967077,E,4,19,0.8,26.669,M,11.575,M,1.0,1448*74
$GPGGA,055234.00,3114.68340919,N,12135.53967168,E,4,16,0.9,26.659,M,11.575,M,1.0,1448*77
$GPGGA,055235.00,3114.68340858,N,12135.53966915,E,4,17,0.9,26.656,M,11.575,M,1.0,1448*7F
$GPGGA,055236.00,3114.68340994,N,12135.53967147,E,4,17,0.9,26.661,M,11.575,M,1.0,1448*77
$GPGGA,055237.00,3114.68341036,N,12135.53967006,E,4,19,0.8,26.663,M,11.575,M,1.0,1448*7F
$GPGGA,055238.00,3114.68340942,N,12135.53966873,E,4,19,0.8,26.661,M,11.575,M,1.0,1448*72
$GPGGA,055239.00,3114.68341033,N,12135.53967036,E,4,17,0.9,26.659,M,11.575,M,1.0,1448*71
$GPGGA,055240.00,3114.68341249,N,12135.53967005,E,4,17,0.9,26.665,M,11.575,M,1.0,1448*7F
$GPGGA,055241.00,3114.68341009,N,12135.53966942,E,4,17,0.9,26.668,M,11.575,M,1.0,1448*7E
$GPGGA,055242.00,3114.68340998,N,12135.53967310,E,4,17,0.9,26.661,M,11.575,M,1.0,1448*78
$GPGGA,055243.00,3114.68341167,N,12135.53967412,E,4,18,0.8,26.650,M,11.575,M,1.0,1448*79
$GPGGA,055244.00,3114.68341057,N,12135.53967082,E,4,18,0.8,26.658,M,11.575,M,1.0,1448*79
$GPGGA,055245.00,3114.68341134,N,12135.53967034,E,4,18,0.8,26.658,M,11.575,M,1.0,1448*71
$GPGGA,055246.00,3114.68341004,N,12135.53967089,E,4,17,0.9,26.658,M,11.575,M,1.0,1448*78
$GPGGA,055247.00,3114.68340894,N,12135.53967076,E,4,16,0.9,26.661,M,11.575,M,1.0,1448*72
$GPGGA,055248.00,3114.68341005,N,12135.53967076,E,4,16,0.9,26.662,M,11.575,M,1.0,1448*7F
$GPGGA,055249.00,3114.68340952,N,12135.53967132,E,4,17,0.9,26.653,M,11.575,M,1.0,1448*76
$GPGGA,055250.00,3114.68341128,N,12135.53967035,E,4,17,0.9,26.650,M,11.575,M,1.0,1448*7F
$GPGGA,055251.00,3114.68340932,N,12135.53967076,E,4,19,0.8,26.661,M,11.575,M,1.0,1448*76
$GPGGA,055252.00,3114.68341150,N,12135.53967214,E,4,19,0.8,26.656,M,11.575,M,1.0,1448*7A
$GPGGA,055253.00,3114.68340854,N,12135.53967000,E,4,19,0.8,26.663,M,11.575,M,1.0,1448*76
$GPGGA,055254.00,3114.68340882,N,12135.53967023,E,4,19,0.8,26.654,M,11.575,M,1.0,1448*7F
$GPGGA,055255.00,3114.68340960,N,12135.53966991,E,4,18,0.8,26.658,M,11.575,M,1.0,1448*7F
$GPGGA,055256.00,3114.68341028,N,12135.53967036,E,4,17,0.9,26.660,M,11.575,M,1.0,1448*78
$GPGGA,055257.00,3114.68341092,N,12135.53966984,E,4,17,0.9,26.665,M,11.575,M,1.0,1448*7C
$GPGGA,055258.00,3114.68340997,N,12135.53967049,E,4,20,0.8,26.660,M,11.575,M,1.0,1448*77
$GPGGA,055259.00,3114.68341068,N,12135.53966967,E,4,20,0.8,26.661,M,11.575,M,1.0,1448*7B
$GPGGA,055300.00,3114.68341010,N,12135.53967017,E,4,19,0.8,26.663,M,11.575,M,1.0,1448*7E
$GPGGA,055301.00,3114.68341012,N,12135.53966866,E,4,19,0.8,26.664,M,11.575,M,1.0,1448*75
$GPGGA,055302.00,3114.68341126,N,12135.53967163,E,4,19,0.8,26.658,M,11.575,M,1.0,1448*72
$GPGGA,055303.00,3114.68341051,N,12135.53966728,E,4,20,0.8,26.679,M,11.575,M,1.0,1448*73
$GPGGA,055304.00,3114.68341057,N,12135.53966397,E,4,19,0.8,26.680,M,11.575,M,1.0,1448*7E
$GPGGA,055305.00,3114.68341038,N,12135.53967112,E,4,20,0.8,26.659,M,11.575,M,1.0,1448*76
$GPGGA,055306.00,3114.68340972,N,12135.53967121,E,4,19,0.8,26.655,M,11.575,M,1.0,1448*75
$GPGGA,055307.00,3114.68340988,N,12135.53967196,E,4,19,0.8,26.656,M,11.575,M,2.0,1448*7D
$GPGGA,055308.00,3114.68341039,N,12135.53967189,E,4,19,0.8,26.646,M,11.575,M,1.0,1448*7C
$GPGGA,055309.00,3114.68341033,N,12135.53967240,E,4,20,0.8,26.653,M,11.575,M,1.0,1448*7F
$GPGGA,055310.00,3114.68340832,N,12135.53967063,E,4,19,0.8,26.657,M,11.575,M,1.0,1448*72
$GPGGA,055311.00,3114.68340971,N,12135.53966995,E,4,18,0.8,26.657,M,11.575,M,1.0,1448*75
$GPGGA,055312.00,3114.68340821,N,12135.53966969,E,4,16,0.9,26.664,M,11.575,M,1.0,1448*7E
$GPGGA,055313.00,3114.68341226,N,12135.53967063,E,4,16,0.9,26.659,M,11.575,M,1.0,1448*7F
$GPGGA,055314.00,3114.68340929,N,12135.53966969,E,4,15,0.9,26.668,M,11.575,M,1.0,1448*7E
$GPGGA,055315.00,3114.68340974,N,12135.53967141,E,4,16,0.9,26.654,M,11.575,M,1.0,1448*78
$GPGGA,055316.00,3114.68341065,N,12135.53967164,E,4,16,0.9,26.655,M,11.575,M,1.0,1448*75
$GPGGA,055317.00,3114.68341131,N,12135.53967182,E,4,16,0.9,26.656,M,11.575,M,1.0,1448*7F
$GPGGA,055318.00,3114.68341095,N,12135.53967157,E,4,16,0.9,26.662,M,11.575,M,1.0,1448*70
$GPGGA,055319.00,3114.68341090,N,12135.53967000,E,4,16,0.9,26.658,M,11.575,M,1.0,1448*7E
$GPGGA,055320.00,3114.68340912,N,12135.53966917,E,4,17,0.9,26.661,M,11.575,M,1.0,1448*73
$GPGGA,055321.00,3114.68341069,N,12135.53967308,E,4,19,0.8,26.658,M,11.575,M,1.0,1448*76
$GPGGA,055322.00,3114.68340850,N,12135.53967184,E,4,18,0.8,26.653,M,11.575,M,1.0,1448*7A
$GPGGA,055323.00,3114.68341002,N,12135.53967334,E,4,18,0.8,26.657,M,11.575,M,1.0,1448*78
$GPGGA,055324.00,3114.68340931,N,12135.53967161,E,4,17,0.9,26.664,M,11.575,M,1.0,1448*7B
$GPGGA,055325.00,3114.68340886,N,12135.53967344,E,4,17,0.9,26.654,M,11.575,M,1.0,1448*71
$GPGGA,055326.00,3114.68341006,N,12135.53967098,E,4,19,0.8,26.656,M,11.575,M,1.0,1448*7C
$GPGGA,055327.00,3114.68341046,N,12135.53966985,E,4,20,0.8,26.659,M,11.575,M,1.0,1448*78
$GPGGA,055328.00,3114.68341068,N,12135.53967148,E,4,19,0.8,26.660,M,11.575,M,1.0,1448*73
$GPGGA,055329.00,3114.68340876,N,12135.53967055,E,4,19,0.8,26.652,M,11.575,M,1.0,1448*78
$GPGGA,055330.00,3114.68341019,N,12135.53966969,E,4,17,0.9,26.657,M,11.575,M,1.0,1448*7D
$GPGGA,055331.00,3114.68341005,N,12135.53967177,E,4,17,0.9,26.655,M,11.575,M,1.0,1448*75
$GPGGA,055332.00,3114.68340914,N,12135.53966900,E,4,17,0.9,26.656,M,11.575,M,1.0,1448*74
$GPGGA,055333.00,3114.68341097,N,12135.53967216,E,4,18,0.8,26.655,M,11.575,M,1.0,1448*76
$GPGGA,055334.00,3114.68340992,N,12135.53967101,E,4,18,0.8,26.666,M,11.575,M,1.0,1448*79
$GPGGA,055335.00,3114.68340966,N,12135.53966963,E,4,17,0.9,26.661,M,11.575,M,1.0,1448*77
$GPGGA,055336.00,3114.68340970,N,12135.53966948,E,4,17,0.9,26.666,M,11.575,M,1.0,1448*7D
$GPGGA,055337.00,3114.68341019,N,12135.53967123,E,4,17,0.9,26.658,M,11.575,M,1.0,1448*72
$GPGGA,055338.00,3114.68341010,N,12135.53967048,E,4,17,0.9,26.654,M,11.575,M,1.0,1448*74
$GPGGA,055339.00,3114.68341077,N,12135.53967030,E,4,19,0.8,26.661,M,11.575,M,1.0,1448*72
$GPGGA,055340.00,3114.68340958,N,12135.53967015,E,4,17,0.9,26.653,M,11.575,M,1.0,1448*70
$GPGGA,055341.00,3114.68340831,N,12135.53966854,E,4,17,0.9,26.664,M,11.575,M,1.0,1448*77
$GPGGA,055342.00,3114.68340977,N,12135.53967086,E,4,17,0.9,26.651,M,11.575,M,1.0,1448*77
$GPGGA,055343.00,3114.68341010,N,12135.53966880,E,4,17,0.9,26.667,M,11.575,M,1.0,1448*75
$GPGGA,055344.00,3114.68340999,N,12135.53966989,E,4,17,0.9,26.656,M,11.575,M,1.0,1448*71
$GPGGA,055345.00,3114.68340891,N,12135.53967143,E,4,17,0.9,26.663,M,11.575,M,1.0,1448*70
$GPGGA,055346.00,3114.68341049,N,12135.53967091,E,4,17,0.9,26.659,M,11.575,M,1.0,1448*78
$GPGGA,055347.00,3114.68340966,N,12135.53967214,E,4,17,0.9,26.658,M,11.575,M,1.0,1448*72
$GPGGA,055348.00,3114.68340889,N,12135.53966977,E,4,18,0.8,26.655,M,11.575,M,1.0,1448*71
$GPGGA,055349.00,3114.68340909,N,12135.53966958,E,4,18,0.8,26.647,M,11.575,M,1.0,1448*77
$GPGGA,055350.00,3114.68340911,N,12135.53967169,E,4,19,0.8,26.657,M,11.575,M,1.0,1448*7D
$GPGGA,055351.00,3114.68341042,N,12135.53967018,E,4,20,0.8,26.660,M,11.575,M,1.0,1448*7B
$GPGGA,055352.00,3114.68340813,N,12135.53967212,E,4,20,0.8,26.663,M,11.575,M,1.0,1448*7E
$GPGGA,055353.00,3114.68340966,N,12135.53966973,E,4,19,0.8,26.657,M,11.575,M,1.0,1448*7C
$GPGGA,055354.00,3114.68340957,N,12135.53967012,E,4,18,0.8,26.664,M,11.575,M,1.0,1448*77
$GPGGA,055355.00,3114.68341038,N,12135.53966947,E,4,18,0.8,26.655,M,11.575,M,1.0,1448*7D
$GPGGA,055356.00,3114.68340968,N,12135.53967077,E,4,19,0.8,26.662,M,11.575,M,1.0,1448*7D
$GPGGA,055357.00,3114.68341139,N,12135.53967032,E,4,19,0.8,26.655,M,11.575,M,1.0,1448*74
$GPGGA,055358.00,3114.68341079,N,12135.53967134,E,4,19,0.8,26.663,M,11.575,M,1.0,1448*7C
$GPGGA,055359.00,3114.68340812,N,12135.53967153,E,4,19,0.8,26.660,M,11.575,M,1.0,1448*7B
$GPGGA,055400.00,3114.68340932,N,12135.53966943,E,4,18,0.9,26.659,M,11.575,M,1.0,1448*71
$GPGGA,055401.00,3114.68341014,N,12135.53966957,E,4,19,0.8,26.655,M,11.575,M,1.0,1448*75
$GPGGA,055402.00,3114.68340971,N,12135.53966814,E,4,19,0.8,26.659,M,11.575,M,1.0,1448*77
$GPGGA,055403.00,3114.68341015,N,12135.53967016,E,4,18,0.9,26.655,M,11.575,M,1.0,1448*7B
$GPGGA,055404.00,3114.68340959,N,12135.53966995,E,4,17,0.9,26.653,M,11.575,M,1.0,1448*76
$GPGGA,055405.00,3114.68341003,N,12135.53966965,E,4,17,0.9,26.654,M,11.575,M,1.0,1448*78
$GPGGA,055406.00,3114.68341045,N,12135.53967112,E,4,17,0.9,26.655,M,11.575,M,1.0,1448*71
$GPGGA,055407.00,3114.68341097,N,12135.53967072,E,4,17,0.9,26.664,M,11.575,M,1.0,1448*7A
$GPGGA,055408.00,3114.68341185,N,12135.53967011,E,4,17,0.9,26.654,M,11.575,M,1.0,1448*71
$GPGGA,055409.00,3114.68340891,N,12135.53966942,E,4,16,0.9,26.663,M,11.575,M,1.0,1448*76
$GPGGA,055410.00,3114.68341070,N,12135.53967011,E,4,17,0.9,26.662,M,11.575,M,1.0,1448*76
$GPGGA,055411.00,3114.68341129,N,12135.53967097,E,4,17,0.9,26.659,M,11.575,M,1.0,1448*7C
$GPGGA,055412.00,3114.68340966,N,12135.53967026,E,4,17,0.9,26.659,M,11.575,M,1.0,1448*77
$GPGGA,055413.00,3114.68340987,N,12135.53967135,E,4,17,0.9,26.656,M,11.575,M,1.0,1448*75
$GPGGA,055414.00,3114.68340924,N,12135.53967222,E,4,17,0.9,26.660,M,11.575,M,1.0,1448*7B
$GPGGA,055415.00,3114.68340974,N,12135.53967133,E,4,17,0.9,26.659,M,11.575,M,1.0,1448*76
$GPGGA,055416.00,3114.68341040,N,12135.53966927,E,4,18,0.9,26.658,M,11.575,M,1.0,1448*78
$GPGGA,055417.00,3114.68341004,N,12135.53967045,E,4,18,0.9,26.659,M,11.575,M,1.0,1448*74
$GPGGA,055418.00,3114.68340862,N,12135.53967074,E,4,18,0.9,26.656,M,11.575,M,1.0,1448*7F
$GPGGA,055419.00,3114.68341020,N,12135.53967019,E,4,19,0.8,26.658,M,11.575,M,1.0,1448*74
$GPGGA,055420.00,3114.68340971,N,12135.53966970,E,4,19,0.8,26.663,M,11.575,M,1.0,1448*7D
$GPGGA,055421.00,3114.68341038,N,12135.53967092,E,4,19,0.8,26.666,M,11.575,M,1.0,1448*78
$GPGGA,055422.00,3114.68341157,N,12135.53966931,E,4,18,0.8,26.659,M,11.575,M,1.0,1448*7F
$GPGGA,055423.00,3114.68340979,N,12135.53967338,E,4,18,0.8,26.658,M,11.575,M,1.0,1448*78
$GPGGA,055424.00,3114.68341078,N,12135.53967134,E,4,18,0.8,26.659,M,11.575,M,1.0,1448*79
$GPGGA,055425.00,3114.68340872,N,12135.53967122,E,4,18,0.8,26.655,M,11.575,M,1.0,1448*70
$GPGGA,055426.00,3114.68340958,N,12135.53966939,E,4,18,0.8,26.665,M,11.575,M,1.0,1448*7A
$GPGGA,055427.00,3114.68340959,N,12135.53967035,E,4,18,0.8,26.668,M,11.575,M,1.0,1448*73
$GPGGA,055428.00,3114.68341013,N,12135.53966866,E,4,16,0.9,26.670,M,11.575,M,1.0,1448*73
$GPGGA,055429.00,3114.68341009,N,12135.53967372,E,4,17,0.9,26.658,M,11.575,M,1.0,1448*7D
$GPGGA,055430.00,3114.68341026,N,12135.53967029,E,4,17,0.9,26.663,M,11.575,M,1.0,1448*7D
$GPGGA,055431.00,3114.68340894,N,12135.53966938,E,4,18,0.8,26.661,M,11.575,M,1.0,1448*78
$GPGGA,055432.00,3114.68341078,N,12135.53967117,E,4,20,0.8,26.667,M,11.575,M,1.0,1448*79
$GPGGA,055433.00,3114.68341093,N,12135.53967135,E,4,19,0.8,26.663,M,11.575,M,1.0,1448*73
$GPGGA,055434.00,3114.68340985,N,12135.53967165,E,4,17,0.9,26.659,M,11.575,M,1.0,1448*78
$GPGGA,055435.00,3114.68340990,N,12135.53967343,E,4,17,0.9,26.649,M,11.575,M,1.0,1448*7A
$GPGGA,055436.00,3114.68341026,N,12135.53967227,E,4,18,0.9,26.661,M,11.575,M,1.0,1448*7A
$GPGGA,055437.00,3114.68341063,N,12135.53967139,E,4,19,0.8,26.660,M,11.575,M,1.0,1448*77
$GPGGA,055438.00,3114.68341051,N,12135.53967182,E,4,18,0.8,26.652,M,11.575,M,1.0,1448*79
$GPGGA,055439.00,3114.68340829,N,12135.53967126,E,4,17,0.9,26.656,M,11.575,M,1.0,1448*7A
$GPGGA,055440.00,3114.68340961,N,12135.53967297,E,4,18,0.9,26.653,M,11.575,M,1.0,1448*7A
$GPGGA,055441.00,3114.68340972,N,12135.53967105,E,4,20,0.8,26.660,M,11.575,M,1.0,1448*7B
$GPGGA,055442.00,3114.68341029,N,12135.53967064,E,4,19,0.8,26.661,M,11.575,M,1.0,1448*73
$GPGGA,055443.00,3114.68340816,N,12135.53966960,E,4,18,0.8,26.658,M,11.575,M,1.0,1448*70
$GPGGA,055444.00,3114.68340896,N,12135.53967202,E,4,18,0.8,26.653,M,11.575,M,1.0,1448*7A
$GPGGA,055445.00,3114.68340954,N,12135.53967111,E,4,18,0.8,26.658,M,11.575,M,1.0,1448*7E
$GPGGA,055446.00,3114.68341002,N,12135.53967216,E,4,18,0.8,26.658,M,11.575,M,2.0,1448*71
$GPGGA,055447.00,3114.68340951,N,12135.53966840,E,4,18,0.8,26.665,M,11.575,M,1.0,1448*7B
$GPGGA,055448.00,3114.68341021,N,12135.53967000,E,4,18,0.8,26.655,M,11.575,M,1.0,1448*75
$GPGGA,055449.00,3114.68340983,N,12135.53967139,E,4,18,0.8,26.652,M,11.575,M,1.0,1448*78
$GPGGA,055450.00,3114.68341075,N,12135.53967059,E,4,19,0.8,26.652,M,11.575,M,1.0,1448*77
$GPGGA,055451.00,3114.68340934,N,12135.53967157,E,4,19,0.8,26.654,M,11.575,M,1.0,1448*72
$GPGGA,055452.00,3114.68340939,N,12135.53967274,E,4,18,0.8,26.656,M,11.575,M,1.0,1448*7D
$GPGGA,055453.00,3114.68340899,N,12135.53967045,E,4,18,0.8,26.664,M,11.575,M,1.0,1448*76
$GPGGA,055454.00,3114.68340965,N,12135.53966996,E,4,19,0.8,26.656,M,11.575,M,1.0,1448*75
$GPGGA,055455.00,3114.68340954,N,12135.53967204,E,4,19,0.8,26.656,M,11.575,M,1.0,1448*77
$GPGGA,055456.00,3114.68341005,N,12135.53967008,E,4,19,0.8,26.657,M,11.575,M,1.0,1448*77
$GPGGA,055457.00,3114.68340972,N,12135.53967108,E,4,18,0.9,26.661,M,11.575,M,1.0,1448*7A
$GPGGA,055458.00,3114.68341054,N,12135.53967188,E,4,18,0.9,26.660,M,11.575,M,1.0,1448*70
$GPGGA,055459.00,3114.68341016,N,12135.53967486,E,4,17,0.9,26.653,M,11.575,M,1.0,1448*73
$GPGGA,055500.00,3114.68340973,N,12135.53966886,E,4,17,0.9,26.673,M,11.575,M,1.0,1448*7A
$GPGGA,055501.00,3114.68341087,N,12135.53967057,E,4,17,0.9,26.659,M,11.575,M,1.0,1448*75
$GPGGA,055502.00,3114.68340961,N,12135.53966893,E,4,17,0.9,26.652,M,11.575,M,2.0,1448*7F
$GPGGA,055503.00,3114.68340896,N,12135.53967026,E,4,18,0.9,26.657,M,11.575,M,2.0,1448*7A
$GPGGA,055504.00,3114.68340887,N,12135.53966982,E,4,16,0.9,26.655,M,11.575,M,1.0,1448*74
$GPGGA,055505.00,3114.68340895,N,12135.53966932,E,4,15,0.9,26.655,M,11.575,M,1.0,1448*7E
$GPGGA,055506.00,3114.68340934,N,12135.53967080,E,4,14,1.0,26.661,M,11.575,M,1.0,1448*78
$GPGGA,055507.00,3114.68340927,N,12135.53966994,E,4,15,0.9,26.653,M,11.575,M,1.0,1448*7E
$GPGGA,055508.00,3114.68341034,N,12135.53967107,E,4,14,1.0,26.654,M,11.575,M,1.0,1448*76
$GPGGA,055509.00,3114.68340861,N,12135.53967034,E,4,14,1.0,26.654,M,11.575,M,1.0,1448*7F
$GPGGA,055510.00,3114.68340990,N,12135.53967261,E,4,15,0.9,26.650,M,11.575,M,1.0,1448*77
$GPGGA,055511.00,3114.68340994,N,12135.53967187,E,4,17,0.9,26.660,M,11.575,M,1.0,1448*78
$GPGGA,055512.00,3114.68340998,N,12135.53967136,E,4,17,0.9,26.656,M,11.575,M,1.0,1448*78
$GPGGA,055513.00,3114.68340888,N,12135.53966996,E,4,17,0.9,26.651,M,11.575,M,1.0,1448*7D
$GPGGA,055514.00,3114.68340907,N,12135.53966962,E,4,17,0.9,26.661,M,11.575,M,1.0,1448*74
$GPGGA,055515.00,3114.68340961,N,12135.53967008,E,4,16,0.9,26.655,M,11.575,M,1.0,1448*77
$GPGGA,055516.00,3114.68341099,N,12135.53966988,E,4,15,0.9,26.658,M,11.575,M,1.0,1448*75
$GPGGA,055517.00,3114.68341032,N,12135.53967108,E,4,16,0.9,26.644,M,11.575,M,1.0,1448*7A
$GPGGA,055518.00,3114.68341001,N,12135.53967045,E,4,16,0.9,26.658,M,11.575,M,1.0,1448*70
$GPGGA,055519.00,3114.68341101,N,12135.53966960,E,4,16,0.9,26.660,M,11.575,M,1.0,1448*74
$GPGGA,055520.00,3114.68340958,N,12135.53967041,E,4,15,0.9,26.660,M,11.575,M,1.0,1448*73
$GPGGA,055521.00,3114.68340998,N,12135.53967157,E,4,15,0.9,26.651,M,11.575,M,1.0,1448*7A
$GPGGA,055522.00,3114.68340937,N,12135.53967055,E,4,15,0.9,26.653,M,11.575,M,1.0,1448*7D
$GPGGA,055523.00,3114.68340997,N,12135.53966985,E,4,17,0.9,26.654,M,11.575,M,1.0,1448*76
$GPGGA,055524.00,3114.68341075,N,12135.53967232,E,4,17,0.9,26.660,M,11.575,M,1.0,1448*74
$GPGGA,055525.00,3114.68340977,N,12135.53967036,E,4,17,0.9,26.657,M,11.575,M,1.0,1448*7D
$GPGGA,055526.00,3114.68341021,N,12135.53967121,E,4,17,0.9,26.652,M,11.575,M,1.0,1448*77
$GPGGA,055527.00,3114.68340959,N,12135.53966951,E,4,17,0.9,26.663,M,11.575,M,1.0,1448*7D
$GPGGA,055528.00,3114.68340869,N,12135.53966936,E,4,17,0.9,26.658,M,11.575,M,1.0,1448*79
$GPGGA,055529.00,3114.68341105,N,12135.53967004,E,4,17,0.9,26.657,M,11.575,M,1.0,1448*7C
$GPGGA,055530.00,3114.68340980,N,12135.53967125,E,4,17,0.9,26.660,M,11.575,M,1.0,1448*76
$GPGGA,055531.00,3114.68340964,N,12135.53967049,E,4,17,0.9,26.656,M,11.575,M,1.0,1448*73
$GPGGA,055532.00,3114.68341041,N,12135.53966944,E,4,17,0.9,26.661,M,11.575,M,1.0,1448*7E
$GPGGA,055533.00,3114.68340982,N,12135.53966997,E,4,16,0.9,26.659,M,11.575,M,1.0,1448*7C
$GPGGA,055534.00,3114.68340967,N,12135.53966906,E,4,18,0.8,26.664,M,11.575,M,1.0,1448*79
$GPGGA,055535.00,3114.68341040,N,12135.53966982,E,4,17,0.9,26.660,M,11.575,M,1.0,1448*73
$GPGGA,055536.00,3114.68341215,N,12135.53967011,E,4,17,0.9,26.658,M,11.575,M,1.0,1448*7B
$GPGGA,055537.00,3114.68340985,N,12135.53967065,E,4,18,0.8,26.656,M,11.575,M,1.0,1448*7A
$GPGGA,055538.00,3114.68340888,N,12135.53967018,E,4,19,0.8,26.659,M,11.575,M,1.0,1448*7D
$GPGGA,055539.00,3114.68340881,N,12135.53966919,E,4,18,0.8,26.662,M,11.575,M,1.0,1448*75
$GPGGA,055540.00,3114.68341022,N,12135.53967092,E,4,18,0.8,26.654,M,11.575,M,1.0,1448*75
$GPGGA,055541.00,3114.68340944,N,12135.53966998,E,4,19,0.8,26.653,M,11.575,M,1.0,1448*78
$GPGGA,055542.00,3114.68341031,N,12135.53967121,E,4,19,0.8,26.653,M,11.575,M,1.0,1448*7A
$GPGGA,055543.00,3114.68341057,N,12135.53966936,E,4,19,0.8,26.657,M,11.575,M,1.0,1448*70
$GPGGA,055544.00,3114.68340957,N,12135.53967094,E,4,19,0.8,26.655,M,11.575,M,1.0,1448*7D
$GPGGA,055545.00,3114.68340999,N,12135.53966616,E,4,20,0.8,26.682,M,11.575,M,1.0,1448*73
$GPGGA,055546.00,3114.68341079,N,12135.53966402,E,4,19,0.8,26.678,M,11.575,M,1.0,1448*7E
$GPGGA,055547.00,3114.68340853,N,12135.53966338,E,4,19,0.8,26.677,M,11.575,M,1.0,1448*7F
$GPGGA,055548.00,3114.68340987,N,12135.53966377,E,4,19,0.8,26.679,M,11.575,M,1.0,1448*7D
$GPGGA,055549.00,3114.68340879,N,12135.53966576,E,4,19,0.8,26.672,M,11.575,M,1.0,1448*70
$GPGGA,055550.00,3114.68340969,N,12135.53966633,E,4,19,0.8,26.680,M,11.575,M,1.0,1448*77
$GPGGA,055551.00,3114.68341039,N,12135.53966490,E,4,17,0.9,26.680,M,11.575,M,1.0,1448*7F
$GPGGA,055552.00,3114.68340791,N,12135.53966694,E,4,16,0.9,26.669,M,11.575,M,1.0,1448*78
$GPGGA,055553.00,3114.68340978,N,12135.53966579,E,4,17,0.9,26.676,M,11.575,M,1.0,1448*7F
$GPGGA,055554.00,3114.68340962,N,12135.53966532,E,4,19,0.8,26.673,M,11.575,M,1.0,1448*76
$GPGGA,055555.00,3114.68341018,N,12135.53966552,E,4,19,0.8,26.678,M,11.575,M,2.0,1448*7C
$GPGGA,055556.00,3114.68341119,N,12135.53966739,E,4,19,0.8,26.673,M,11.575,M,1.0,1448*78
$GPGGA,055557.00,3114.68340839,N,12135.53966596,E,4,18,0.9,26.672,M,11.575,M,1.0,1448*75
$GPGGA,055558.00,3114.68341039,N,12135.53966613,E,4,18,0.9,26.672,M,11.575,M,1.0,1448*7D
$GPGGA,055559.00,3114.68340960,N,12135.53967248,E,4,19,0.8,26.657,M,11.575,M,1.0,1448*74
$GPGGA,055600.00,3114.68341041,N,12135.53967087,E,4,19,0.8,26.653,M,11.575,M,1.0,1448*75
$GPGGA,055601.00,3114.68340913,N,12135.53967188,E,4,20,0.8,26.652,M,11.575,M,1.0,1448*7E
$GPGGA,055602.00,3114.68341094,N,12135.53967219,E,4,19,0.8,26.648,M,11.575,M,1.0,1448*70
$GPGGA,055603.00,3114.68341057,N,12135.53966989,E,4,18,0.8,26.651,M,11.575,M,1.0,1448*74
$GPGGA,055604.00,3114.68340980,N,12135.53966928,E,4,19,0.8,26.656,M,11.575,M,1.0,1448*7C
$GPGGA,055605.00,3114.68341015,N,12135.53967057,E,4,19,0.8,26.654,M,11.575,M,1.0,1448*7B
$GPGGA,055606.00,3114.68341035,N,12135.53967074,E,4,20,0.8,26.658,M,11.575,M,1.0,1448*7D
$GPGGA,055607.00,3114.68341029,N,12135.53966974,E,4,20,0.8,26.655,M,11.575,M,1.0,1448*74
$GPGGA,055608.00,3114.68341187,N,12135.53967045,E,4,20,0.8,26.659,M,11.575,M,1.0,1448*78
$GPGGA,055609.00,3114.68341091,N,12135.53967111,E,4,20,0.8,26.655,M,11.575,M,1.0,1448*73
$GPGGA,055610.00,3114.68341096,N,12135.53967226,E,4,19,0.8,26.647,M,11.575,M,1.0,1448*72
$GPGGA,055611.00,3114.68341033,N,12135.53967275,E,4,19,0.8,26.646,M,11.575,M,1.0,1448*7B
$GPGGA,055612.00,3114.68340985,N,12135.53967204,E,4,19,0.8,26.652,M,11.575,M,1.0,1448*7E
$GPGGA,055613.00,3114.68340971,N,12135.53967147,E,4,19,0.8,26.648,M,11.575,M,1.0,1448*7B
$GPGGA,055614.00,3114.68341026,N,12135.53967109,E,4,18,0.9,26.648,M,11.575,M,1.0,1448*7C
$GPGGA,055615.00,3114.68340991,N,12135.53967232,E,4,18,0.9,26.651,M,11.575,M,1.0,1448*7A
$GPGGA,055616.00,3114.68340961,N,12135.53967182,E,4,17,0.9,26.654,M,11.575,M,1.0,1448*74
$GPGGA,055617.00,3114.68341055,N,12135.53967157,E,4,17,0.9,26.654,M,11.575,M,1.0,1448*72
$GPGGA,055618.00,3114.68340965,N,12135.53967139,E,4,18,0.8,26.658,M,11.575,M,1.0,1448*7C
$GPGGA,055619.00,3114.68341063,N,12135.53966729,E,4,19,0.8,26.666,M,11.575,M,1.0,1448*79
$GPGGA,055620.00,3114.68340999,N,12135.53967290,E,4,19,0.8,26.648,M,11.575,M,1.0,1448*74
$GPGGA,055621.00,3114.68340907,N,12135.53967032,E,4,18,0.9,26.655,M,11.575,M,1.0,1448*74
$GPGGA,055622.00,3114.68341102,N,12135.53967135,E,4,18,0.9,26.654,M,11.575,M,1.0,1448*7C
$GPGGA,055623.00,3114.68341162,N,12135.53967139,E,4,18,0.9,26.657,M,11.575,M,1.0,1448*74
$GPGGA,055624.00,3114.68341143,N,12135.53967266,E,4,18,0.9,26.656,M,11.575,M,1.0,1448*78
$GPGGA,055625.00,3114.68340987,N,12135.53967142,E,4,18,0.9,26.651,M,11.575,M,1.0,1448*7A
$GPGGA,055626.00,3114.68340945,N,12135.53966970,E,4,18,0.9,26.654,M,11.575,M,1.0,1448*7A
$GPGGA,055627.00,3114.68341025,N,12135.53967137,E,4,19,0.8,26.656,M,11.575,M,1.0,1448*7D
$GPGGA,055628.00,3114.68340957,N,12135.53967189,E,4,19,0.8,26.651,M,11.575,M,1.0,1448*7D
$GPGGA,055629.00,3114.68341005,N,12135.53967114,E,4,18,0.8,26.651,M,11.575,M,1.0,1448*76
$GPGGA,055630.00,3114.68341089,N,12135.53967122,E,4,19,0.8,26.662,M,11.575,M,1.0,1448*7E
$GPGGA,055631.00,3114.68341242,N,12135.53967128,E,4,19,0.8,26.652,M,11.575,M,1.0,1448*73
$GPGGA,055632.00,3114.68341114,N,12135.53967087,E,4,19,0.8,26.650,M,11.575,M,1.0,1448*76
$GPGGA,055633.00,3114.68341006,N,12135.53967048,E,4,19,0.8,26.650,M,11.575,M,1.0,1448*76
$GPGGA,055634.00,3114.68341060,N,12135.53967133,E,4,17,0.9,26.656,M,11.575,M,1.0,1448*75
$GPGGA,055635.00,3114.68340981,N,12135.53967080,E,4,17,0.9,26.653,M,11.575,M,1.0,1448*7F
$GPGGA,055636.00,3114.68340989,N,12135.53967212,E,4,17,0.9,26.649,M,11.575,M,1.0,1448*76
$GPGGA,055637.00,3114.68340958,N,12135.53967047,E,4,17,0.9,26.654,M,11.575,M,1.0,1448*75
$GPGGA,055638.00,3114.68341014,N,12135.53967126,E,4,18,0.9,26.655,M,11.575,M,1.0,1448*72
$GPGGA,055639.00,3114.68341087,N,12135.53967204,E,4,18,0.9,26.656,M,11.575,M,1.0,1448*79
$GPGGA,055640.00,3114.68340979,N,12135.53967284,E,4,18,0.9,26.651,M,11.575,M,1.0,1448*71
$GPGGA,055641.00,3114.68341088,N,12135.53967361,E,4,16,0.9,26.653,M,11.575,M,1.0,1448*70
$GPGGA,055642.00,3114.68340985,N,12135.53967066,E,4,16,0.9,26.657,M,11.575,M,1.0,1448*76
$GPGGA,055643.00,3114.68341005,N,12135.53967013,E,4,17,0.9,26.639,M,11.575,M,1.0,1448*7C
$GPGGA,055644.00,3114.68340980,N,12135.53966780,E,4,16,0.9,26.655,M,11.575,M,1.0,1448*79
$GPGGA,055645.00,3114.68341228,N,12135.53967102,E,4,17,0.9,26.658,M,11.575,M,1.0,1448*71
$GPGGA,055646.00,3114.68341058,N,12135.53967025,E,4,17,0.9,26.658,M,11.575,M,1.0,1448*73
$GPGGA,055647.00,3114.68340925,N,12135.53967242,E,4,17,0.9,26.658,M,11.575,M,1.0,1448*73
$GPGGA,055648.00,3114.68340997,N,12135.53967207,E,4,17,0.9,26.654,M,11.575,M,1.0,1448*78
$GPGGA,055649.00,3114.68341165,N,12135.53966999,E,4,16,0.9,26.666,M,11.575,M,1.0,1448*70
$GPGGA,055650.00,3114.68341066,N,12135.53967047,E,4,17,0.8,26.650,M,11.575,M,1.0,1448*74
$GPGGA,055651.00,3114.68341019,N,12135.53967072,E,4,17,0.8,26.657,M,11.575,M,1.0,1448*7C
$GPGGA,055652.00,3114.68340972,N,12135.53967115,E,4,17,0.9,26.650,M,11.575,M,1.0,1448*7C
$GPGGA,055653.00,3114.68341015,N,12135.53966945,E,4,19,0.8,26.662,M,11.575,M,1.0,1448*76
$GPGGA,055654.00,3114.68341139,N,12135.53966984,E,4,16,0.9,26.658,M,11.575,M,1.0,1448*74
$GPGGA,055655.00,3114.68340965,N,12135.53967143,E,4,16,0.9,26.656,M,11.575,M,1.0,1448*79
$GPGGA,055656.00,3114.68341050,N,12135.53966978,E,4,17,0.9,26.656,M,11.575,M,1.0,1448*74
$GPGGA,055657.00,3114.68341006,N,12135.53966961,E,4,18,0.9,26.652,M,11.575,M,1.0,1448*75
$GPGGA,055658.00,3114.68341019,N,12135.53967011,E,4,18,0.9,26.655,M,11.575,M,1.0,1448*7C
$GPGGA,055659.00,3114.68340967,N,12135.53967091,E,4,18,0.9,26.657,M,11.575,M,1.0,1448*76
$GPGGA,055700.00,3114.68340964,N,12135.53966951,E,4,18,0.9,26.664,M,11.575,M,1.0,1448*7C
$GPGGA,055701.00,3114.68340874,N,12135.53966986,E,4,17,0.9,26.661,M,11.575,M,1.0,1448*7D
$GPGGA,055702.00,3114.68340895,N,12135.53966949,E,4,17,0.9,26.658,M,11.575,M,2.0,1448*7B
$GPGGA,055703.00,3114.68341031,N,12135.53967113,E,4,18,0.9,26.651,M,11.575,M,1.0,1448*7E
$GPGGA,055704.00,3114.68340936,N,12135.53966779,E,4,17,0.9,26.662,M,11.575,M,1.0,1448*72
$GPGGA,055705.00,3114.68341033,N,12135.53966930,E,4,17,0.9,26.661,M,11.575,M,1.0,1448*7E
$GPGGA,055706.00,3114.68340947,N,12135.53967163,E,4,17,0.9,26.659,M,11.575,M,1.0,1448*72
$GPGGA,055707.00,3114.68341060,N,12135.53967039,E,4,17,0.9,26.655,M,11.575,M,1.0,1448*7C
$GPGGA,055708.00,3114.68341040,N,12135.53967061,E,4,17,0.9,26.657,M,11.575,M,2.0,1448*7D
$GPGGA,055709.00,3114.68341027,N,12135.53966992,E,4,19,0.8,26.663,M,11.575,M,1.0,1448*72
$GPGGA,055710.00,3114.68340950,N,12135.53967063,E,4,19,0.8,26.665,M,11.575,M,1.0,1448*72
$GPGGA,055711.00,3114.68340890,N,12135.53967179,E,4,19,0.8,26.662,M,11.575,M,1.0,1448*73
$GPGGA,055712.00,3114.68340887,N,12135.53966949,E,4,16,0.9,26.662,M,11.575,M,1.0,1448*72
$GPGGA,055713.00,3114.68340943,N,12135.53966970,E,4,16,0.9,26.662,M,11.575,M,1.0,1448*70
$GPGGA,055714.00,3114.68340986,N,12135.53966965,E,4,16,0.9,26.657,M,11.575,M,1.0,1448*7C
$GPGGA,055715.00,3114.68340985,N,12135.53966965,E,4,16,0.9,26.658,M,11.575,M,1.0,1448*71
$GPGGA,055716.00,3114.68341059,N,12135.53966943,E,4,16,0.9,26.664,M,11.575,M,1.0,1448*70
$GPGGA,055717.00,3114.68341104,N,12135.53966977,E,4,16,0.9,26.658,M,11.575,M,1.0,1448*70
$GPGGA,055718.00,3114.68341026,N,12135.53967036,E,4,16,0.9,26.661,M,11.575,M,1.0,1448*79
$GPGGA,055719.00,3114.68340903,N,12135.53967074,E,4,16,0.9,26.659,M,11.575,M,1.0,1448*7A
$GPGGA,055720.00,3114.68341094,N,12135.53967124,E,4,15,0.9,26.652,M,11.575,M,1.0,1448*7A
$GPGGA,055721.00,3114.68340900,N,12135.53967062,E,4,15,0.9,26.660,M,11.575,M,1.0,1448*7C
$GPGGA,055722.00,3114.68341055,N,12135.53967151,E,4,15,0.9,26.654,M,11.575,M,1.0,1448*71
$GPGGA,055723.00,3114.68340874,N,12135.53966900,E,4,16,0.9,26.658,M,11.575,M,1.0,1448*78
$GPGGA,055724.00,3114.68340849,N,12135.53966980,E,4,18,0.8,26.659,M,11.575,M,1.0,1448*77
$GPGGA,055725.00,3114.68340832,N,12135.53966959,E,4,17,0.8,26.657,M,11.575,M,1.0,1448*7F
$GPGGA,055726.00,3114.68340942,N,12135.53966940,E,4,17,0.8,26.662,M,11.575,M,1.0,1448*74
$GPGGA,055727.00,3114.68340879,N,12135.53967231,E,4,18,0.8,26.654,M,11.575,M,1.0,1448*7A
$GPGGA,055728.00,3114.68341020,N,12135.53967101,E,4,17,0.9,26.659,M,11.575,M,1.0,1448*73
$GPGGA,055729.00,3114.68340870,N,12135.53967161,E,4,16,0.9,26.654,M,11.575,M,1.0,1448*74
$GPGGA,055730.00,3114.68340824,N,12135.53966970,E,4,17,0.9,26.658,M,11.575,M,1.0,1448*79
$GPGGA,055731.00,3114.68340943,N,12135.53967264,E,4,18,0.9,26.653,M,11.575,M,1.0,1448*73
$GPGGA,055732.00,3114.68341218,N,12135.53967060,E,4,17,0.9,26.652,M,11.575,M,1.0,1448*7C
$GPGGA,055733.00,3114.68340948,N,12135.53966849,E,4,17,0.9,26.662,M,11.575,M,1.0,1448*73
$GPGGA,055734.00,3114.68340838,N,12135.53966989,E,4,17,0.9,26.664,M,11.575,M,1.0,1448*79
$GPGGA,055735.00,3114.68340974,N,12135.53966801,E,4,17,0.9,26.654,M,11.575,M,1.0,1448*73
$GPGGA,055736.00,3114.68340856,N,12135.53967081,E,4,18,0.9,26.654,M,11.575,M,1.0,1448*7F
$GPGGA,055737.00,3114.68341000,N,12135.53967231,E,4,18,0.9,26.651,M,11.575,M,1.0,1448*78
$GPGGA,055738.00,3114.68340899,N,12135.53967018,E,4,17,0.9,26.653,M,11.575,M,1.0,1448*7A
$GPGGA,055739.00,3114.68340879,N,12135.53967002,E,4,17,0.9,26.657,M,11.575,M,1.0,1448*7A
$GPGGA,055740.00,3114.68341046,N,12135.53966910,E,4,16,0.9,26.661,M,11.575,M,1.0,1448*7E
$GPGGA,055741.00,3114.68340949,N,12135.53967123,E,4,16,0.9,26.659,M,11.575,M,1.0,1448*7A
$GPGGA,055742.00,3114.68340948,N,12135.53966995,E,4,16,0.9,26.662,M,11.575,M,1.0,1448*74
$GPGGA,055743.00,3114.68340914,N,12135.53966974,E,4,16,0.9,26.650,M,11.575,M,1.0,1448*72
$GPGGA,055744.00,3114.68340900,N,12135.53966943,E,4,16,0.9,26.652,M,11.575,M,1.0,1448*76
$GPGGA,055745.00,3114.68340877,N,12135.53966966,E,4,16,0.9,26.666,M,11.575,M,1.0,1448*76
$GPGGA,055746.00,3114.68341016,N,12135.53966982,E,4,18,0.9,26.655,M,11.575,M,1.0,1448*7F
$GPGGA,055747.00,3114.68340912,N,12135.53967077,E,4,19,0.8,26.655,M,11.575,M,1.0,1448*70
$GPGGA,055748.00,3114.68340967,N,12135.53966964,E,4,18,0.9,26.647,M,11.575,M,1.0,1448*74
$GPGGA,055749.00,3114.68340900,N,12135.53967031,E,4,18,0.8,26.653,M,11.575,M,1.0,1448*78
$GPGGA,055750.00,3114.68340983,N,12135.53967047,E,4,18,0.8,26.653,M,11.575,M,1.0,1448*7A
$GPGGA,055751.00,3114.68340923,N,12135.53967115,E,4,18,0.8,26.660,M,11.575,M,1.0,1448*77
$GPGGA,055752.00,3114.68340858,N,12135.53967175,E,4,19,0.8,26.654,M,11.575,M,1.0,1448*79
$GPGGA,055753.00,3114.68340945,N,12135.53967303,E,4,20,0.8,26.651,M,11.575,M,1.0,1448*79
$GPGGA,055754.00,3114.68340919,N,12135.53967110,E,4,19,0.8,26.656,M,11.575,M,1.0,1448*7A
$GPGGA,055755.00,3114.68340878,N,12135.53966998,E,4,19,0.8,26.663,M,11.575,M,1.0,1448*72
$GPGGA,055756.00,3114.68341006,N,12135.53967033,E,4,19,0.8,26.655,M,11.575,M,1.0,1448*7D
$GPGGA,055757.00,3114.68340814,N,12135.53967053,E,4,17,0.9,26.649,M,11.575,M,1.0,1448*72
$GPGGA,055758.00,3114.68340958,N,12135.53966930,E,4,17,0.9,26.654,M,11.575,M,1.0,1448*75
$GPGGA,055759.00,3114.68340950,N,12135.53967132,E,4,16,0.9,26.647,M,11.575,M,1.0,1448*74
$GPGGA,055800.00,3114.68340977,N,12135.53967125,E,4,17,0.9,26.655,M,11.575,M,1.0,1448*76
$GPGGA,055801.00,3114.68340836,N,12135.53967075,E,4,19,0.8,26.657,M,11.575,M,1.0,1448*7A
$GPGGA,055802.00,3114.68340902,N,12135.53967004,E,4,19,0.8,26.648,M,11.575,M,2.0,1448*74
$GPGGA,055803.00,3114.68340947,N,12135.53967175,E,4,18,0.8,26.663,M,11.575,M,1.0,1448*78
$GPGGA,055804.00,3114.68340904,N,12135.53967059,E,4,18,0.8,26.652,M,11.575,M,1.0,1448*75
$GPGGA,055805.00,3114.68340992,N,12135.53967233,E,4,18,0.8,26.659,M,11.575,M,1.0,1448*7E
$GPGGA,055806.00,3114.68340892,N,12135.53967095,E,4,18,0.9,26.657,M,11.575,M,1.0,1448*7D
$GPGGA,055807.00,3114.68340974,N,12135.53967186,E,4,18,0.9,26.652,M,11.575,M,1.0,1448*73
$GPGGA,055808.00,3114.68340972,N,12135.53967057,E,4,17,0.9,26.665,M,11.575,M,1.0,1448*7C
$GPGGA,055809.00,3114.68340974,N,12135.53966943,E,4,18,0.8,26.653,M,11.575,M,1.0,1448*7D
$GPGGA,055810.00,3114.68340802,N,12135.53967132,E,4,18,0.8,26.654,M,11.575,M,1.0,1448*7D
$GPGGA,055811.00,3114.68340940,N,12135.53966981,E,4,18,0.8,26.659,M,11.575,M,1.0,1448*77
$GPGGA,055812.00,3114.68340842,N,12135.53967118,E,4,18,0.8,26.654,M,11.575,M,1.0,1448*73
$GPGGA,055813.00,3114.68340938,N,12135.53967064,E,4,18,0.8,26.655,M,11.575,M,1.0,1448*75
$GPGGA,055814.00,3114.68340945,N,12135.53967482,E,4,19,0.8,26.655,M,11.575,M,1.0,1448*75
$GPGGA,055815.00,3114.68340975,N,12135.53967099,E,4,17,0.9,26.653,M,11.575,M,1.0,1448*70
$GPGGA,055816.00,3114.68340695,N,12135.53967296,E,4,15,0.9,26.662,M,11.575,M,1.0,1448*7F
$GPGGA,055817.00,3114.68340836,N,12135.53967268,E,4,17,0.9,26.661,M,11.575,M,1.0,1448*79
$GPGGA,055818.00,3114.68340945,N,12135.53967112,E,4,17,0.9,26.652,M,11.575,M,1.0,1448*7D
$GPGGA,055819.00,3114.68340823,N,12135.53967160,E,4,17,0.9,26.664,M,11.575,M,1.0,1448*7D
$GPGGA,055820.00,3114.68340804,N,12135.53966984,E,4,17,0.9,26.658,M,11.575,M,1.0,1448*7E
$GPGGA,055821.00,3114.68340895,N,12135.53966966,E,4,17,0.9,26.661,M,11.575,M,1.0,1448*71
$GPGGA,055822.00,3114.68340870,N,12135.53967283,E,4,17,0.9,26.671,M,11.575,M,1.0,1448*79
$GPGGA,055823.00,3114.68340871,N,12135.53966905,E,4,17,0.9,26.655,M,11.575,M,1.0,1448*7B
$GPGGA,055824.00,3114.68340914,N,12135.53967097,E,4,17,0.9,26.666,M,11.575,M,1.0,1448*7D
$GPGGA,055825.00,3114.68341025,N,12135.53967108,E,4,16,0.9,26.658,M,11.575,M,1.0,1448*7D
$GPGGA,055826.00,3114.68340791,N,12135.53966958,E,4,16,0.9,26.657,M,11.575,M,1.0,1448*74
$GPGGA,055827.00,3114.68340798,N,12135.53967000,E,4,16,0.9,26.662,M,11.575,M,1.0,1448*7F
$GPGGA,055828.00,3114.68340903,N,12135.53967090,E,4,18,0.9,26.653,M,11.575,M,1.0,1448*79
$GPGGA,055829.00,3114.68340943,N,12135.53967063,E,4,18,0.9,26.660,M,11.575,M,1.0,1448*70
$GPGGA,055830.00,3114.68340739,N,12135.53967074,E,4,19,0.8,26.662,M,11.575,M,1.0,1448*7F
$GPGGA,055831.00,3114.68340899,N,12135.53966981,E,4,18,0.8,26.667,M,11.575,M,1.0,1448*7D
$GPGGA,055832.00,3114.68340930,N,12135.53966860,E,4,18,0.8,26.666,M,11.575,M,1.0,1448*73
$GPGGA,055833.00,3114.68340909,N,12135.53966952,E,4,18,0.8,26.660,M,11.575,M,1.0,1448*7E
$GPGGA,055834.00,3114.68340940,N,12135.53967088,E,4,19,0.8,26.653,M,11.575,M,1.0,1448*7A
$GPGGA,055835.00,3114.68340790,N,12135.53967171,E,4,19,0.8,26.656,M,11.575,M,1.0,1448*7A
$GPGGA,055836.00,3114.68340927,N,12135.53967006,E,4,19,0.8,26.658,M,11.575,M,1.0,1448*74
$GPGGA,055837.00,3114.68340939,N,12135.53967065,E,4,18,0.8,26.661,M,11.575,M,1.0,1448*74
$GPGGA,055838.00,3114.68340918,N,12135.53967035,E,4,19,0.8,26.658,M,11.575,M,1.0,1448*76
$GPGGA,055839.00,3114.68340821,N,12135.53967087,E,4,19,0.8,26.661,M,11.575,M,1.0,1448*7F
$GPGGA,055840.00,3114.68340830,N,12135.53966982,E,4,19,0.8,26.660,M,11.575,M,1.0,1448*7D
$GPGGA,055841.00,3114.68340851,N,12135.53966985,E,4,19,0.8,26.663,M,11.575,M,1.0,1448*7F
$GPGGA,055842.00,3114.68340732,N,12135.53966992,E,4,19,0.8,26.663,M,11.575,M,1.0,1448*70
$GPGGA,055843.00,3114.68340849,N,12135.53967077,E,4,19,0.8,26.660,M,11.575,M,1.0,1448*72
$GPGGA,055844.00,3114.68340851,N,12135.53967067,E,4,19,0.8,26.659,M,11.575,M,1.0,1448*77
$GPGGA,055845.00,3114.68340966,N,12135.53967100,E,4,19,0.8,26.658,M,11.575,M,1.0,1448*72
$GPGGA,055846.00,3114.68340760,N,12135.53967013,E,4,20,0.8,26.656,M,11.575,M,1.0,1448*7E
$GPGGA,055847.00,3114.68340769,N,12135.53967076,E,4,17,0.8,26.667,M,11.575,M,1.0,1448*73
$GPGGA,055848.00,3114.68340802,N,12135.53967169,E,4,17,0.8,26.660,M,11.575,M,1.0,1448*76
$GPGGA,055849.00,3114.68340885,N,12135.53966995,E,4,17,0.9,26.657,M,11.575,M,1.0,1448*77
$GPGGA,055850.00,3114.68340720,N,12135.53967182,E,4,17,0.9,26.662,M,11.575,M,1.0,1448*76
$GPGGA,055851.00,3114.68340639,N,12135.53967319,E,4,17,0.9,26.657,M,11.575,M,2.0,1448*7B
$GPGGA,055852.00,3114.68340880,N,12135.53966993,E,4,18,0.8,26.663,M,11.575,M,1.0,1448*77
$GPGGA,055853.00,3114.68340853,N,12135.53967095,E,4,18,0.8,26.656,M,11.575,M,1.0,1448*70
$GPGGA,055854.00,3114.68340779,N,12135.53967246,E,4,18,0.8,26.657,M,11.575,M,1.0,1448*7D
$GPGGA,055855.00,3114.68340892,N,12135.53967019,E,4,19,0.8,26.663,M,11.575,M,1.0,1448*78
$GPGGA,055856.00,3114.68340922,N,12135.53966935,E,4,20,0.8,26.656,M,11.575,M,1.0,1448*7B
$GPGGA,055857.00,3114.68340948,N,12135.53967116,E,4,20,0.8,26.658,M,11.575,M,1.0,1448*70
$GPGGA,055858.00,3114.68340800,N,12135.53967132,E,4,20,0.8,26.652,M,11.575,M,1.0,1448*7E
$GPGGA,055859.00,3114.68340890,N,12135.53967196,E,4,20,0.8,26.646,M,11.575,M,1.0,1448*7D
$GPGGA,055900.00,3114.68340845,N,12135.53967179,E,4,19,0.8,26.657,M,11.575,M,1.0,1448*73
$GPGGA,055901.00,3114.68340954,N,12135.53967161,E,4,18,0.8,26.656,M,11.575,M,1.0,1448*7A
$GPGGA,055902.00,3114.68340882,N,12135.53967037,E,4,19,0.8,26.655,M,11.575,M,1.0,1448*73
$GPGGA,055903.00,3114.68340814,N,12135.53967300,E,4,18,0.9,26.651,M,11.575,M,1.0,1448*7E
$GPGGA,055904.00,3114.68341022,N,12135.53967080,E,4,18,0.9,26.654,M,11.575,M,1.0,1448*7B
$GPGGA,055905.00,3114.68340928,N,12135.53966987,E,4,18,0.9,26.652,M,11.575,M,1.0,1448*71
$GPGGA,055906.00,3114.68340829,N,12135.53967191,E,4,18,0.9,26.654,M,11.575,M,1.0,1448*7A
$GPGGA,055907.00,3114.68340928,N,12135.53967167,E,4,19,0.8,26.661,M,11.575,M,1.0,1448*74
$GPGGA,055908.00,3114.68340859,N,12135.53967183,E,4,20,0.8,26.653,M,11.575,M,1.0,1448*7D
$GPGGA,055909.00,3114.68340778,N,12135.53967123,E,4,20,0.8,26.657,M,11.575,M,1.0,1448*7E
$GPGGA,055910.00,3114.68340752,N,12135.53967174,E,4,18,0.8,26.653,M,11.575,M,1.0,1448*73
$GPGGA,055911.00,3114.68340833,N,12135.53967350,E,4,16,0.9,26.655,M,11.575,M,1.0,1448*77
$GPGGA,055912.00,3114.68340943,N,12135.53967113,E,4,17,0.9,26.651,M,11.575,M,1.0,1448*72
$GPGGA,055913.00,3114.68340830,N,12135.53966984,E,4,17,0.9,26.662,M,11.575,M,1.0,1448*71
$GPGGA,055914.00,3114.68340853,N,12135.53967141,E,4,20,0.8,26.658,M,11.575,M,1.0,1448*7F
$GPGGA,055915.00,3114.68340737,N,12135.53967258,E,4,20,0.8,26.661,M,11.575,M,1.0,1448*72
$GPGGA,055916.00,3114.68340901,N,12135.53967038,E,4,20,0.8,26.654,M,11.575,M,1.0,1448*78
$GPGGA,055917.00,3114.68340802,N,12135.53967119,E,4,18,0.9,26.652,M,11.575,M,1.0,1448*75
$GPGGA,055918.00,3114.68340883,N,12135.53967162,E,4,18,0.9,26.656,M,11.575,M,1.0,1448*7B
$GPGGA,055919.00,3114.68340871,N,12135.53967102,E,4,18,0.9,26.654,M,11.575,M,1.0,1448*73
$GPGGA,055920.00,3114.68340929,N,12135.53967218,E,4,18,0.9,26.657,M,11.575,M,1.0,1448*7E
$GPGGA,055921.00,3114.68341002,N,12135.53967084,E,4,20,0.8,26.654,M,11.575,M,1.0,1448*70
$GPGGA,055922.00,3114.68340851,N,12135.53966982,E,4,20,0.8,26.657,M,11.575,M,1.0,1448*71
$GPGGA,055923.00,3114.68340784,N,12135.53967192,E,4,20,0.8,26.656,M,11.575,M,1.0,1448*7E
$GPGGA,055924.00,3114.68340936,N,12135.53967189,E,4,19,0.8,26.656,M,11.575,M,1.0,1448*7E
$GPGGA,055925.00,3114.68340798,N,12135.53967197,E,4,19,0.8,26.654,M,11.575,M,1.0,1448*78
$GPGGA,055926.00,3114.68340739,N,12135.53967081,E,4,19,0.8,26.657,M,11.575,M,1.0,1448*75
$GPGGA,055927.00,3114.68340829,N,12135.53967141,E,4,20,0.8,26.656,M,11.575,M,1.0,1448*7C
$GPGGA,055928.00,3114.68340950,N,12135.53967256,E,4,20,0.8,26.654,M,11.575,M,1.0,1448*7B
$GPGGA,055929.00,3114.68340871,N,12135.53967250,E,4,20,0.8,26.651,M,11.575,M,1.0,1448*7B
$GPGGA,055930.00,3114.68340963,N,12135.53967256,E,4,19,0.8,26.652,M,11.575,M,1.0,1448*7E
$GPGGA,055931.00,3114.68341006,N,12135.53967144,E,4,18,0.8,26.655,M,11.575,M,1.0,1448*72
$GPGGA,055932.00,3114.68340856,N,12135.53967157,E,4,16,0.9,26.651,M,11.575,M,1.0,1448*74
$GPGGA,055933.00,3114.68340966,N,12135.53967048,E,4,17,0.9,26.659,M,11.575,M,1.0,1448*71
$GPGGA,055934.00,3114.68340886,N,12135.53967149,E,4,17,0.9,26.650,M,11.575,M,1.0,1448*70
$GPGGA,055935.00,3114.68340901,N,12135.53967157,E,4,17,0.9,26.653,M,11.575,M,1.0,1448*73
$GPGGA,055936.00,3114.68340951,N,12135.53967255,E,4,17,0.9,26.658,M,11.575,M,1.0,1448*7F
$GPGGA,055937.00,3114.68340835,N,12135.53967121,E,4,18,0.9,26.657,M,11.575,M,1.0,1448*7D
$GPGGA,055938.00,3114.68340974,N,12135.53967184,E,4,17,0.9,26.657,M,11.575,M,1.0,1448*76
$GPGGA,055939.00,3114.68340825,N,12135.53967049,E,4,17,0.9,26.657,M,11.575,M,1.0,1448*72
$GPGGA,055940.00,3114.68340932,N,12135.53966879,E,4,17,0.9,26.656,M,11.575,M,1.0,1448*70
$GPGGA,055941.00,3114.68340986,N,12135.53967065,E,4,15,0.9,26.655,M,11.575,M,1.0,1448*7B
$GPGGA,055942.00,3114.68341012,N,12135.53966976,E,4,16,0.9,26.654,M,11.575,M,1.0,1448*75
$GPGGA,055943.00,3114.68340858,N,12135.53967035,E,4,15,0.9,26.652,M,11.575,M,1.0,1448*79
$GPGGA,055944.00,3114.68340808,N,12135.53967189,E,4,15,0.9,26.656,M,11.575,M,1.0,1448*79
$GPGGA,055945.00,3114.68340844,N,12135.53966983,E,4,16,0.9,26.655,M,11.575,M,1.0,1448*73
$GPGGA,055946.00,3114.68340903,N,12135.53966944,E,4,16,0.9,26.654,M,11.575,M,2.0,1448*7B
$GPGGA,055947.00,3114.68340844,N,12135.53966968,E,4,16,0.9,26.655,M,11.575,M,1.0,1448*74
$GPGGA,055948.00,3114.68340830,N,12135.53966882,E,4,16,0.9,26.653,M,11.575,M,1.0,1448*7B
$GPGGA,055949.00,3114.68340947,N,12135.53966796,E,4,16,0.9,26.658,M,11.575,M,1.0,1448*7A
$GPGGA,055950.00,3114.68340793,N,12135.53966856,E,4,16,0.9,26.653,M,11.575,M,1.0,1448*7D
$GPGGA,055951.00,3114.68340793,N,12135.53966810,E,4,16,0.9,26.661,M,11.575,M,1.0,1448*7F
$GPGGA,055952.00,3114.68340931,N,12135.53966712,E,4,16,0.9,26.655,M,11.575,M,1.0,1448*70
$GPGGA,055953.00,3114.68340912,N,12135.53966729,E,4,16,0.9,26.658,M,11.575,M,1.0,1448*75
$GPGGA,055954.00,3114.68340892,N,12135.53966785,E,4,16,0.9,26.657,M,11.575,M,1.0,1448*72
$GPGGA,055955.00,3114.68340797,N,12135.53966903,E,4,16,0.9,26.658,M,11.575,M,1.0,1448*76
$GPGGA,055956.00,3114.68340813,N,12135.53966718,E,4,16,0.9,26.660,M,11.575,M,1.0,1448*79
$GPGGA,055957.00,3114.68340883,N,12135.53966816,E,4,16,0.9,26.664,M,11.575,M,1.0,1448*74
$GPGGA,055958.00,3114.68340798,N,12135.53966988,E,4,16,0.9,26.658,M,11.575,M,1.0,1448*77
$GPGGA,055959.00,3114.68340808,N,12135.53966662,E,4,16,0.9,26.660,M,11.575,M,1.0,1448*70
$GPGGA,060000.00,3114.68340948,N,12135.53966800,E,4,16,0.9,26.653,M,11.575,M,1.0,1448*7C
$GPGGA,060001.00,3114.68340958,N,12135.53966789,E,4,16,0.9,26.659,M,11.575,M,1.0,1448*78
$GPGGA,060002.00,3114.68340864,N,12135.53966887,E,4,16,0.9,26.655,M,11.575,M,2.0,1448*7B
$GPGGA,060003.00,3114.68340848,N,12135.53966774,E,4,16,0.9,26.656,M,11.575,M,1.0,1448*77
$GPGGA,060004.00,3114.68340858,N,12135.53966809,E,4,16,0.9,26.659,M,11.575,M,1.0,1448*7B
$GPGGA,060005.00,3114.68341037,N,12135.53967186,E,4,16,0.9,26.651,M,11.575,M,1.0,1448*7D
$GPGGA,060006.00,3114.68341052,N,12135.53967151,E,4,16,0.9,26.649,M,11.575,M,1.0,1448*7E
$GPGGA,060007.00,3114.68341021,N,12135.53967226,E,4,17,0.9,26.655,M,11.575,M,1.0,1448*74
$GPGGA,060008.00,3114.68340965,N,12135.53967105,E,4,17,0.9,26.649,M,11.575,M,1.0,1448*7C
$GPGGA,060009.00,3114.68340958,N,12135.53967157,E,4,17,0.9,26.651,M,11.575,M,1.0,1448*7D
$GPGGA,060010.00,3114.68340905,N,12135.53967090,E,4,17,0.9,26.658,M,11.575,M,1.0,1448*7E
$GPGGA,060011.00,3114.68341088,N,12135.53967338,E,4,17,0.9,26.653,M,11.575,M,1.0,1448*78
$GPGGA,060012.00,3114.68340923,N,12135.53967064,E,4,17,0.9,26.655,M,11.575,M,1.0,1448*7E
$GPGGA,060013.00,3114.68341080,N,12135.53967137,E,4,17,0.9,26.650,M,11.575,M,1.0,1448*7C
$GPGGA,060014.00,3114.68340998,N,12135.53967073,E,4,17,0.9,26.656,M,11.575,M,1.0,1448*7D
$GPGGA,060015.00,3114.68340944,N,12135.53967186,E,4,16,0.9,26.660,M,11.575,M,1.0,1448*72
$GPGGA,060016.00,3114.68340943,N,12135.53967236,E,4,16,0.9,26.655,M,11.575,M,1.0,1448*78
$GPGGA,060017.00,3114.68340916,N,12135.53967155,E,4,17,0.9,26.657,M,11.575,M,1.0,1448*7C
$GPGGA,060018.00,3114.68340939,N,12135.53967128,E,4,18,0.8,26.657,M,11.575,M,1.0,1448*7A
$GPGGA,060019.00,3114.68340983,N,12135.53967100,E,4,17,0.9,26.649,M,11.575,M,1.0,1448*71
$GPGGA,060020.00,3114.68341029,N,12135.53967148,E,4,17,0.9,26.653,M,11.575,M,1.0,1448*74
$GPGGA,060021.00,3114.68340994,N,12135.53967097,E,4,17,0.9,26.650,M,11.575,M,1.0,1448*7B
$GPGGA,060022.00,3114.68340990,N,12135.53966951,E,4,18,0.8,26.654,M,11.575,M,1.0,1448*74
$GPGGA,060023.00,3114.68340980,N,12135.53967068,E,4,18,0.8,26.661,M,11.575,M,1.0,1448*70
$GPGGA,060024.00,3114.68340897,N,12135.53967072,E,4,18,0.8,26.656,M,11.575,M,1.0,1448*7F
$GPGGA,060025.00,3114.68340968,N,12135.53967171,E,4,18,0.8,26.653,M,11.575,M,1.0,1448*78
$GPGGA,060026.00,3114.68340901,N,12135.53966840,E,4,19,0.8,26.658,M,11.575,M,1.0,1448*74
$GPGGA,060027.00,3114.68340982,N,12135.53966944,E,4,19,0.8,26.648,M,11.575,M,1.0,1448*7A
$GPGGA,060028.00,3114.68340970,N,12135.53966991,E,4,19,0.8,26.644,M,11.575,M,2.0,1448*7F
$GPGGA,060029.00,3114.68340970,N,12135.53967115,E,4,19,0.8,26.656,M,11.575,M,1.0,1448*7B
$GPGGA,060030.00,3114.68340991,N,12135.53967166,E,4,18,0.8,26.652,M,11.575,M,1.0,1448*7D
$GPGGA,060031.00,3114.68340966,N,12135.53967079,E,4,18,0.8,26.653,M,11.575,M,1.0,1448*7A
$GPGGA,060032.00,3114.68340942,N,12135.53967097,E,4,18,0.8,26.664,M,11.575,M,1.0,1448*7B
$GPGGA,060033.00,3114.68340889,N,12135.53967027,E,4,18,0.8,26.663,M,11.575,M,2.0,1448*73
$GPGGA,060034.00,3114.68340932,N,12135.53967048,E,4,15,0.9,26.656,M,11.575,M,1.0,1448*75
$GPGGA,060035.00,3114.68341044,N,12135.53967133,E,4,16,0.9,26.659,M,11.575,M,1.0,1448*7C
$GPGGA,060036.00,3114.68340904,N,12135.53967074,E,4,17,0.9,26.657,M,11.575,M,1.0,1448*7E
$GPGGA,060037.00,3114.68341004,N,12135.53967164,E,4,17,0.9,26.653,M,11.575,M,1.0,1448*73
$GPGGA,060038.00,3114.68341106,N,12135.53967012,E,4,19,0.8,26.655,M,11.575,M,1.0,1448*76
$GPGGA,060039.00,3114.68341089,N,12135.53967128,E,4,17,0.9,26.659,M,11.575,M,1.0,1448*7A
$GPGGA,060040.00,3114.68340928,N,12135.53967171,E,4,17,0.9,26.661,M,11.575,M,1.0,1448*70
$GPGGA,060041.00,3114.68341113,N,12135.53967121,E,4,17,0.9,26.654,M,11.575,M,1.0,1448*73
$GPGGA,060042.00,3114.68341002,N,12135.53966969,E,4,17,0.9,26.655,M,11.575,M,1.0,1448*75
$GPGGA,060043.00,3114.68341059,N,12135.53966830,E,4,18,0.8,26.661,M,11.575,M,1.0,1448*7E
$GPGGA,060044.00,3114.68341117,N,12135.53967265,E,4,15,0.9,26.650,M,11.575,M,1.0,1448*77
$GPGGA,060045.00,3114.68340975,N,12135.53967141,E,4,15,0.9,26.662,M,11.575,M,1.0,1448*7F
$GPGGA,060046.00,3114.68341050,N,12135.53967146,E,4,15,0.9,26.663,M,11.575,M,1.0,1448*75
$GPGGA,060047.00,3114.68340978,N,12135.53967027,E,4,15,0.9,26.663,M,11.575,M,1.0,1448*70
$GPGGA,060048.00,3114.68341022,N,12135.53967030,E,4,15,0.9,26.658,M,11.575,M,1.0,1448*76
$GPGGA,060049.00,3114.68341192,N,12135.53966830,E,4,15,0.9,26.662,M,11.575,M,1.0,1448*7D
$GPGGA,060050.00,3114.68340981,N,12135.53967008,E,4,15,0.9,26.661,M,11.575,M,1.0,1448*7F
$GPGGA,060051.00,3114.68340917,N,12135.53966868,E,4,15,0.9,26.659,M,11.575,M,1.0,1448*75
$GPGGA,060052.00,3114.68340904,N,12135.53967086,E,4,16,0.9,26.656,M,11.575,M,1.0,1448*71
$GPGGA,060053.00,3114.68340947,N,12135.53966966,E,4,16,0.9,26.653,M,11.575,M,1.0,1448*74
$GPGGA,060054.00,3114.68341033,N,12135.53967050,E,4,16,0.9,26.655,M,11.575,M,1.0,1448*73
$GPGGA,060055.00,3114.68341026,N,12135.53967057,E,4,16,0.9,26.654,M,11.575,M,2.0,1448*73
$GPGGA,060056.00,3114.68341020,N,12135.53967236,E,4,18,0.8,26.658,M,11.575,M,1.0,1448*73
$GPGGA,060057.00,3114.68340917,N,12135.53967296,E,4,18,0.8,26.648,M,11.575,M,1.0,1448*75
$GPGGA,060058.00,3114.68340877,N,12135.53967049,E,4,18,0.8,26.660,M,11.575,M,1.0,1448*77
$GPGGA,060059.00,3114.68340850,N,12135.53967102,E,4,19,0.8,26.657,M,11.575,M,1.0,1448*78
$GPGGA,060100.00,3114.68341135,N,12135.53966874,E,4,18,0.8,26.661,M,11.575,M,1.0,1448*73
$GPGGA,060101.00,3114.68340921,N,12135.53966915,E,4,18,0.8,26.659,M,11.575,M,1.0,1448*73
$GPGGA,060102.00,3114.68340884,N,12135.53966927,E,4,16,0.9,26.659,M,11.575,M,1.0,1448*70
$GPGGA,060103.00,3114.68340953,N,12135.53966935,E,4,16,0.9,26.660,M,11.575,M,2.0,1448*70
$GPGGA,060104.00,3114.68341006,N,12135.53967080,E,4,16,0.9,26.649,M,11.575,M,1.0,1448*71
$GPGGA,060105.00,3114.68340927,N,12135.53967031,E,4,16,0.9,26.660,M,11.575,M,1.0,1448*7A
$GPGGA,060106.00,3114.68341058,N,12135.53967134,E,4,16,0.9,26.656,M,11.575,M,1.0,1448*78
$GPGGA,060107.00,3114.68340984,N,12135.53967088,E,4,16,0.9,26.658,M,11.575,M,1.0,1448*78
$GPGGA,060108.00,3114.68341081,N,12135.53966987,E,4,16,0.9,26.666,M,11.575,M,1.0,1448*70
$GPGGA,060109.00,3114.68340887,N,12135.53966991,E,4,15,0.9,26.658,M,11.575,M,1.0,1448*77
$GPGGA,060110.00,3114.68340837,N,12135.53967226,E,4,15,0.9,26.655,M,11.575,M,1.0,1448*7F
$GPGGA,060111.00,3114.68340952,N,12135.53967152,E,4,16,0.9,26.659,M,11.575,M,1.0,1448*73
$GPGGA,060112.00,3114.68341013,N,12135.53967020,E,4,16,0.9,26.656,M,11.575,M,1.0,1448*76
$GPGGA,060113.00,3114.68340940,N,12135.53966862,E,4,16,0.9,26.660,M,11.575,M,1.0,1448*73
$GPGGA,060114.00,3114.68341157,N,12135.53967243,E,4,17,0.9,26.650,M,11.575,M,1.0,1448*71
$GPGGA,060115.00,3114.68341006,N,12135.53967043,E,4,17,0.9,26.660,M,11.575,M,1.0,1448*74
$GPGGA,060116.00,3114.68340867,N,12135.53967054,E,4,17,0.9,26.658,M,11.575,M,1.0,1448*74
$GPGGA,060117.00,3114.68340888,N,12135.53966970,E,4,17,0.9,26.655,M,11.575,M,1.0,1448*77
$GPGGA,060118.00,3114.68340950,N,12135.53966880,E,4,17,0.9,26.657,M,11.575,M,1.0,1448*70
$GPGGA,060119.00,3114.68341053,N,12135.53967276,E,4,17,0.9,26.647,M,11.575,M,1.0,1448*79
$GPGGA,060120.00,3114.68340969,N,12135.53966901,E,4,18,0.8,26.659,M,11.575,M,1.0,1448*79
$GPGGA,060121.00,3114.68341033,N,12135.53966965,E,4,18,0.8,26.650,M,11.575,M,1.0,1448*74
$GPGGA,060122.00,3114.68341061,N,12135.53966848,E,4,18,0.8,26.664,M,11.575,M,1.0,1448*79
$GPGGA,060123.00,3114.68341006,N,12135.53967106,E,4,18,0.8,26.650,M,11.575,M,1.0,1448*7C
$GPGGA,060124.00,3114.68340980,N,12135.53966961,E,4,18,0.8,26.661,M,11.575,M,1.0,1448*77
$GPGGA,060125.00,3114.68340948,N,12135.53967024,E,4,18,0.8,26.648,M,11.575,M,1.0,1448*70
$GPGGA,060126.00,3114.68341013,N,12135.53967192,E,4,18,0.8,26.648,M,11.575,M,1.0,1448*79
$GPGGA,060127.00,3114.68340835,N,12135.53966898,E,4,18,0.8,26.655,M,11.575,M,1.0,1448*7B
$GPGGA,060128.00,3114.68341003,N,12135.53966961,E,4,17,0.9,26.651,M,11.575,M,1.0,1448*75
$GPGGA,060129.00,3114.68340915,N,12135.53967026,E,4,17,0.9,26.655,M,11.575,M,1.0,1448*74
$GPGGA,060130.00,3114.68340849,N,12135.53967023,E,4,17,0.9,26.660,M,11.575,M,1.0,1448*77
$GPGGA,060131.00,3114.68340816,N,12135.53967166,E,4,17,0.9,26.659,M,11.575,M,2.0,1448*75
$GPGGA,060132.00,3114.68340827,N,12135.53967367,E,4,17,0.9,26.655,M,11.575,M,1.0,1448*78
$GPGGA,060133.00,3114.68340959,N,12135.53966968,E,4,17,0.9,26.662,M,11.575,M,1.0,1448*71
$GPGGA,060134.00,3114.68341008,N,12135.53967238,E,4,17,0.9,26.656,M,11.575,M,1.0,1448*72
$GPGGA,060135.00,3114.68341001,N,12135.53967388,E,4,18,0.8,26.651,M,11.575,M,1.0,1448*79
$GPGGA,060136.00,3114.68341044,N,12135.53967038,E,4,19,0.8,26.650,M,11.575,M,1.0,1448*73
$GPGGA,060137.00,3114.68340964,N,12135.53967125,E,4,19,0.8,26.655,M,11.575,M,1.0,1448*70
$GPGGA,060138.00,3114.68341037,N,12135.53967096,E,4,19,0.8,26.658,M,11.575,M,1.0,1448*75
$GPGGA,060139.00,3114.68340974,N,12135.53967071,E,4,17,0.9,26.650,M,11.575,M,1.0,1448*75
$GPGGA,060140.00,3114.68340975,N,12135.53966750,E,4,17,0.9,26.664,M,11.575,M,1.0,1448*78
$GPGGA,060141.00,3114.68341105,N,12135.53967109,E,4,17,0.9,26.650,M,11.575,M,1.0,1448*7B
$GPGGA,060142.00,3114.68341111,N,12135.53967179,E,4,17,0.9,26.657,M,11.575,M,1.0,1448*7D
$GPGGA,060143.00,3114.68341107,N,12135.53967015,E,4,17,0.9,26.651,M,11.575,M,1.0,1448*76
$GPGGA,060144.00,3114.68340959,N,12135.53967092,E,4,17,0.9,26.652,M,11.575,M,1.0,1448*7F
$GPGGA,060145.00,3114.68341067,N,12135.53967046,E,4,18,0.8,26.653,M,11.575,M,1.0,1448*7D
$GPGGA,060146.00,3114.68341039,N,12135.53967000,E,4,17,0.9,26.646,M,11.575,M,1.0,1448*7D
$GPGGA,060147.00,3114.68340966,N,12135.53966865,E,4,17,0.8,26.653,M,11.575,M,1.0,1448*71
$GPGGA,060148.00,3114.68340750,N,12135.53966985,E,4,18,0.8,26.655,M,11.575,M,1.0,1448*73
$GPGGA,060149.00,3114.68340970,N,12135.53967059,E,4,19,0.8,26.652,M,11.575,M,1.0,1448*71
$GPGGA,060150.00,3114.68340932,N,12135.53967157,E,4,19,0.8,26.649,M,11.575,M,1.0,1448*7A
$GPGGA,060151.00,3114.68340862,N,12135.53966878,E,4,18,0.8,26.652,M,11.575,M,1.0,1448*71
$GPGGA,060152.00,3114.68341021,N,12135.53967217,E,4,18,0.8,26.650,M,11.575,M,1.0,1448*7C
$GPGGA,060153.00,3114.68340994,N,12135.53967096,E,4,18,0.8,26.652,M,11.575,M,2.0,1448*71
$GPGGA,060154.00,3114.68341068,N,12135.53967134,E,4,18,0.8,26.649,M,11.575,M,1.0,1448*7D
$GPGGA,060155.00,3114.68340989,N,12135.53966968,E,4,18,0.8,26.658,M,11.575,M,1.0,1448*7B
$GPGGA,060156.00,3114.68341011,N,12135.53966986,E,4,18,0.8,26.663,M,11.575,M,1.0,1448*79
$GPGGA,060157.00,3114.68340877,N,12135.53966513,E,4,19,0.8,26.676,M,11.575,M,1.0,1448*74
$GPGGA,060158.00,3114.68340898,N,12135.53966501,E,4,19,0.8,26.671,M,11.575,M,1.0,1448*7E
$GPGGA,060159.00,3114.68340983,N,12135.53966422,E,4,19,0.8,26.668,M,11.575,M,1.0,1448*7C
$GPGGA,060200.00,3114.68340939,N,12135.53966596,E,4,19,0.8,26.671,M,11.575,M,1.0,1448*74
$GPGGA,060201.00,3114.68340972,N,12135.53966670,E,4,19,0.8,26.666,M,11.575,M,1.0,1448*77
$GPGGA,060202.00,3114.68340800,N,12135.53966291,E,4,19,0.8,26.674,M,11.575,M,1.0,1448*78
$GPGGA,060203.00,3114.68340915,N,12135.53966461,E,4,19,0.8,26.672,M,11.575,M,1.0,1448*73
$GPGGA,060204.00,3114.68341006,N,12135.53966706,E,4,19,0.8,26.665,M,11.575,M,1.0,1448*7A
$GPGGA,060205.00,3114.68340820,N,12135.53966454,E,4,19,0.8,26.669,M,11.575,M,1.0,1448*7E
$GPGGA,060206.00,3114.68340860,N,12135.53966426,E,4,18,0.8,26.673,M,11.575,M,1.0,1448*76
$GPGGA,060207.00,3114.68340753,N,12135.53966512,E,4,18,0.8,26.675,M,11.575,M,1.0,1448*78
$GPGGA,060208.00,3114.68340838,N,12135.53966554,E,4,18,0.8,26.670,M,11.575,M,1.0,1448*72
$GPGGA,060209.00,3114.68340919,N,12135.53966804,E,4,19,0.8,26.666,M,11.575,M,1.0,1448*7F
$GPGGA,060210.00,3114.68340957,N,12135.53966561,E,4,19,0.8,26.676,M,11.575,M,1.0,1448*72
$GPGGA,060211.00,3114.68340832,N,12135.53966667,E,4,19,0.8,26.675,M,11.575,M,1.0,1448*77
$GPGGA,060212.00,3114.68340844,N,12135.53966893,E,4,20,0.8,26.656,M,11.575,M,1.0,1448*7B
$GPGGA,060213.00,3114.68340834,N,12135.53966777,E,4,20,0.8,26.657,M,11.575,M,1.0,1448*79
$GPGGA,060214.00,3114.68340760,N,12135.53966971,E,4,19,0.8,26.664,M,11.575,M,1.0,1448*72
$GPGGA,060215.00,3114.68340991,N,12135.53967058,E,4,18,0.8,26.654,M,11.575,M,1.0,1448*72
$GPGGA,060216.00,3114.68340925,N,12135.53967104,E,4,20,0.8,26.655,M,11.575,M,1.0,1448*7C
$GPGGA,060217.00,3114.68340920,N,12135.53966776,E,4,16,0.9,26.663,M,11.575,M,1.0,1448*7B
$GPGGA,060218.00,3114.68340865,N,12135.53966809,E,4,16,0.9,26.665,M,11.575,M,1.0,1448*75
$GPGGA,060219.00,3114.68340868,N,12135.53967039,E,4,20,0.8,26.649,M,11.575,M,1.0,1448*79
$GPGGA,060220.00,3114.68340959,N,12135.53967179,E,4,20,0.8,26.647,M,11.575,M,1.0,1448*7B
$GPGGA,060221.00,3114.68340926,N,12135.53967285,E,4,19,0.8,26.649,M,11.575,M,1.0,1448*76
$GPGGA,060222.00,3114.68340901,N,12135.53966993,E,4,20,0.8,26.657,M,11.575,M,1.0,1448*78
$GPGGA,060223.00,3114.68340888,N,12135.53966997,E,4,19,0.8,26.649,M,11.575,M,1.0,1448*78
$GPGGA,060224.00,3114.68340842,N,12135.53967117,E,4,18,0.8,26.651,M,11.575,M,1.0,1448*70
$GPGGA,060225.00,3114.68340885,N,12135.53966957,E,4,18,0.8,26.664,M,11.575,M,1.0,1448*71
$GPGGA,060226.00,3114.68340974,N,12135.53967257,E,4,18,0.8,26.641,M,11.575,M,1.0,1448*70
$GPGGA,060227.00,3114.68340988,N,12135.53966880,E,4,18,0.8,26.654,M,11.575,M,1.0,1448*77
$GPGGA,060228.00,3114.68340871,N,12135.53967173,E,4,19,0.8,26.653,M,11.575,M,1.0,1448*7D
$GPGGA,060229.00,3114.68340915,N,12135.53967025,E,4,19,0.8,26.648,M,11.575,M,1.0,1448*77
$GPGGA,060230.00,3114.68340823,N,12135.53967129,E,4,19,0.8,26.647,M,11.575,M,2.0,1448*7A
$GPGGA,060231.00,3114.68340883,N,12135.53967122,E,4,18,0.8,26.654,M,11.575,M,1.0,1448*7A
$GPGGA,060232.00,3114.68340901,N,12135.53967218,E,4,18,0.8,26.652,M,11.575,M,1.0,1448*7E
$GPGGA,060233.00,3114.68340843,N,12135.53966942,E,4,19,0.8,26.646,M,11.575,M,1.0,1448*79
$GPGGA,060234.00,3114.68340973,N,12135.53967004,E,4,19,0.8,26.649,M,11.575,M,1.0,1448*79
$GPGGA,060235.00,3114.68340959,N,12135.53967084,E,4,19,0.8,26.648,M,11.575,M,1.0,1448*79
$GPGGA,060236.00,3114.68340859,N,12135.53967312,E,4,20,0.8,26.650,M,11.575,M,1.0,1448*74
$GPGGA,060237.00,3114.68340824,N,12135.53967214,E,4,20,0.8,26.646,M,11.575,M,1.0,1448*7F
$GPGGA,060238.00,3114.68340848,N,12135.53967019,E,4,20,0.8,26.653,M,11.575,M,1.0,1448*71
$GPGGA,060239.00,3114.68340871,N,12135.53967226,E,4,19,0.8,26.654,M,11.575,M,1.0,1448*79
$GPGGA,060240.00,3114.68340751,N,12135.53967026,E,4,19,0.8,26.656,M,11.575,M,1.0,1448*7A
$GPGGA,060241.00,3114.68340862,N,12135.53967131,E,4,19,0.8,26.647,M,11.575,M,1.0,1448*73
$GPGGA,060242.00,3114.68340841,N,12135.53966972,E,4,19,0.8,26.661,M,11.575,M,1.0,1448*7B
$GPGGA,060243.00,3114.68340901,N,12135.53967001,E,4,20,0.8,26.651,M,11.575,M,1.0,1448*7A
$GPGGA,060244.00,3114.68341031,N,12135.53967071,E,4,20,0.8,26.648,M,11.575,M,1.0,1448*79
$GPGGA,060245.00,3114.68340901,N,12135.53967171,E,4,20,0.8,26.654,M,11.575,M,1.0,1448*7F
$GPGGA,060246.00,3114.68340868,N,12135.53967155,E,4,20,0.8,26.656,M,11.575,M,1.0,1448*76
$GPGGA,060247.00,3114.68340778,N,12135.53967251,E,4,20,0.8,26.659,M,11.575,M,1.0,1448*71
$GPGGA,060248.00,3114.68340742,N,12135.53966944,E,4,20,0.8,26.652,M,11.575,M,1.0,1448*72
$GPGGA,060249.00,3114.68340857,N,12135.53967128,E,4,17,0.9,26.650,M,11.575,M,1.0,1448*7C
$GPGGA,060250.00,3114.68340825,N,12135.53967175,E,4,17,0.9,26.655,M,11.575,M,1.0,1448*7C
$GPGGA,060251.00,3114.68340867,N,12135.53967216,E,4,17,0.9,26.655,M,11.575,M,1.0,1448*7D
$GPGGA,060252.00,3114.68340974,N,12135.53967237,E,4,16,0.9,26.652,M,11.575,M,1.0,1448*78
$GPGGA,060253.00,3114.68340864,N,12135.53966986,E,4,16,0.9,26.658,M,11.575,M,1.0,1448*73
$GPGGA,060254.00,3114.68340926,N,12135.53967244,E,4,18,0.8,26.652,M,11.575,M,1.0,1448*72
$GPGGA,060255.00,3114.68340960,N,12135.53967092,E,4,18,0.8,26.645,M,11.575,M,1.0,1448*7E
$GPGGA,060256.00,3114.68341008,N,12135.53967236,E,4,18,0.8,26.651,M,11.575,M,1.0,1448*72
$GPGGA,060257.00,3114.68340915,N,12135.53966912,E,4,18,0.8,26.652,M,11.575,M,1.0,1448*78
$GPGGA,060258.00,3114.68340864,N,12135.53967003,E,4,19,0.8,26.655,M,11.575,M,1.0,1448*7E
$GPGGA,060259.00,3114.68341009,N,12135.53967002,E,4,20,0.8,26.654,M,11.575,M,1.0,1448*77
$GPGGA,060300.00,3114.68340961,N,12135.53967112,E,4,20,0.8,26.657,M,11.575,M,1.0,1448*7F
$GPGGA,060301.00,3114.68340893,N,12135.53967098,E,4,19,0.8,26.648,M,11.575,M,1.0,1448*75
$GPGGA,060302.00,3114.68340725,N,12135.53967284,E,4,19,0.8,26.643,M,11.575,M,2.0,1448*73
$GPGGA,060303.00,3114.68340978,N,12135.53967156,E,4,19,0.8,26.659,M,11.575,M,1.0,1448*70
$GPGGA,060304.00,3114.68340873,N,12135.53967034,E,4,18,0.8,26.658,M,11.575,M,1.0,1448*78
$GPGGA,060305.00,3114.68340910,N,12135.53966959,E,4,18,0.8,26.659,M,11.575,M,1.0,1448*7F
$GPGGA,060306.00,3114.68340913,N,12135.53967224,E,4,20,0.8,26.658,M,11.575,M,1.0,1448*75
$GPGGA,060307.00,3114.68340795,N,12135.53967114,E,4,20,0.8,26.651,M,11.575,M,1.0,1448*7D
$GPGGA,060308.00,3114.68340971,N,12135.53967146,E,4,20,0.8,26.648,M,11.575,M,1.0,1448*79
$GPGGA,060309.00,3114.68340798,N,12135.53967209,E,4,19,0.8,26.655,M,11.575,M,1.0,1448*7F
$GPGGA,060310.00,3114.68340975,N,12135.53967369,E,4,18,0.8,26.655,M,11.575,M,1.0,1448*7C
$GPGGA,060311.00,3114.68340921,N,12135.53967224,E,4,18,0.8,26.660,M,11.575,M,1.0,1448*72
$GPGGA,060312.00,3114.68340981,N,12135.53967188,E,4,19,0.8,26.656,M,11.575,M,1.0,1448*7A
$GPGGA,060313.00,3114.68341009,N,12135.53967268,E,4,18,0.9,26.654,M,11.575,M,1.0,1448*7C
$GPGGA,060314.00,3114.68341007,N,12135.53967101,E,4,18,0.9,26.648,M,11.575,M,1.0,1448*74
$GPGGA,060315.00,3114.68340876,N,12135.53967163,E,4,19,0.8,26.659,M,11.575,M,1.0,1448*7E
$GPGGA,060316.00,3114.68340872,N,12135.53967235,E,4,20,0.8,26.649,M,11.575,M,1.0,1448*72
$GPGGA,060317.00,3114.68340975,N,12135.53967112,E,4,20,0.8,26.657,M,11.575,M,1.0,1448*7C
$GPGGA,060318.00,3114.68340903,N,12135.53967081,E,4,20,0.8,26.658,M,11.575,M,1.0,1448*76
$GPGGA,060319.00,3114.68340939,N,12135.53967104,E,4,20,0.8,26.660,M,11.575,M,1.0,1448*79
$GPGGA,060320.00,3114.68341011,N,12135.53967080,E,4,20,0.8,26.654,M,11.575,M,1.0,1448*7B
$GPGGA,060321.00,3114.68340913,N,12135.53967253,E,4,20,0.8,26.653,M,11.575,M,1.0,1448*7B
$GPGGA,060322.00,3114.68341037,N,12135.53967077,E,4,20,0.8,26.658,M,11.575,M,1.0,1448*79
$GPGGA,060323.00,3114.68340970,N,12135.53967315,E,4,19,0.8,26.655,M,11.575,M,1.0,1448*73
$GPGGA,060324.00,3114.68340934,N,12135.53967199,E,4,19,0.8,26.659,M,11.575,M,1.0,1448*7E
$GPGGA,060325.00,3114.68340795,N,12135.53966626,E,4,20,0.8,26.680,M,11.575,M,1.0,1448*76
$GPGGA,060326.00,3114.68340803,N,12135.53966769,E,4,19,0.8,26.674,M,11.575,M,1.0,1448*7E
$GPGGA,060327.00,3114.68340902,N,12135.53966568,E,4,19,0.8,26.679,M,11.575,M,1.0,1448*71
$GPGGA,060328.00,3114.68340915,N,12135.53966811,E,4,19,0.8,26.667,M,11.575,M,1.0,1448*74
$GPGGA,060329.00,3114.68340949,N,12135.53966753,E,4,19,0.8,26.678,M,11.575,M,1.0,1448*7B
$GPGGA,060330.00,3114.68340925,N,12135.53966775,E,4,17,0.9,26.673,M,11.575,M,1.0,1448*79
$GPGGA,060331.00,3114.68340864,N,12135.53966649,E,4,17,0.9,26.676,M,11.575,M,1.0,1448*77
$GPGGA,060332.00,3114.68341000,N,12135.53966904,E,4,18,0.9,26.679,M,11.575,M,1.0,1448*79
$GPGGA,060333.00,3114.68340936,N,12135.53966620,E,4,18,0.8,26.678,M,11.575,M,1.0,1448*7C
$GPGGA,060334.00,3114.68340963,N,12135.53966840,E,4,18,0.8,26.673,M,11.575,M,1.0,1448*78
$GPGGA,060335.00,3114.68340929,N,12135.53966824,E,4,19,0.8,26.671,M,11.575,M,1.0,1448*76
$GPGGA,060336.00,3114.68340895,N,12135.53966823,E,4,19,0.8,26.675,M,11.575,M,1.0,1448*70
$GPGGA,060337.00,3114.68340998,N,12135.53966686,E,4,19,0.8,26.676,M,11.575,M,1.0,1448*7F
$GPGGA,060338.00,3114.68341173,N,12135.53967168,E,4,20,0.8,26.655,M,11.575,M,1.0,1448*71
$GPGGA,060339.00,3114.68340946,N,12135.53967459,E,4,20,0.8,26.652,M,11.575,M,1.0,1448*7F
$GPGGA,060340.00,3114.68341030,N,12135.53967400,E,4,20,0.8,26.652,M,11.575,M,1.0,1448*74
$GPGGA,060341.00,3114.68341008,N,12135.53967266,E,4,20,0.8,26.659,M,11.575,M,1.0,1448*73
$GPGGA,060342.00,3114.68341001,N,12135.53967354,E,4,20,0.8,26.654,M,11.575,M,1.0,1448*74
